City,Lat,Lng,Max Temp,Humidity,Cloudiness,Wind Speed,Country,Date
tiznit,29.5833,-9.5,63.48,52,22,8.86,MA,2021-04-23 18:58:51
martapura,-3.4167,114.85,73.4,100,27,1.14,ID,2021-04-23 18:58:52
nuevitas,21.5453,-77.2644,89.6,37,40,13.8,CU,2021-04-23 18:58:52
hofn,64.2539,-15.2082,46.4,76,90,1.59,IS,2021-04-23 18:57:50
necochea,-38.5473,-58.7368,66.0,88,100,1.99,AR,2021-04-23 18:58:52
hailun,47.45,126.9333,40.6,37,100,12.8,CN,2021-04-23 18:58:53
yellowknife,62.456,-114.3525,14.0,62,90,9.22,CA,2021-04-23 18:58:53
mataura,-46.1927,168.8643,43.0,95,28,1.01,NZ,2021-04-23 18:57:48
hobart,-42.8794,147.3294,51.8,66,40,10.36,AU,2021-04-23 18:56:00
jamestown,42.097,-79.2353,59.0,35,1,8.05,US,2021-04-23 18:58:53
seymchan,62.8833,152.4333,15.91,90,100,11.9,RU,2021-04-23 18:58:54
kaeo,-35.1,173.7833,59.0,95,11,5.99,NZ,2021-04-23 18:58:54
saint-philippe,-21.3585,55.7679,77.0,78,87,12.66,RE,2021-04-23 18:58:54
tasiilaq,65.6145,-37.6368,35.6,60,90,3.44,GL,2021-04-23 18:58:54
salym,60.0625,71.4789,41.13,82,100,8.59,RU,2021-04-23 18:58:55
iralaya,15.0,-83.2333,87.8,74,75,10.36,HN,2021-04-23 18:58:55
punta arenas,-53.15,-70.9167,48.2,93,75,4.61,CL,2021-04-23 18:55:57
sinnamary,5.3833,-52.95,79.18,86,100,12.5,GF,2021-04-23 18:58:55
eureka,40.8021,-124.1637,60.01,70,100,4.0,US,2021-04-23 18:58:56
port alfred,-33.5906,26.891,67.33,74,0,22.37,ZA,2021-04-23 18:58:56
fairbanks,64.8378,-147.7164,50.0,39,40,9.22,US,2021-04-23 18:56:09
namibe,-15.1961,12.1522,79.61,77,1,5.61,AO,2021-04-23 18:58:56
kismayo,-0.3582,42.5454,82.13,77,99,12.77,SO,2021-04-23 18:58:56
rikitea,-23.1203,-134.9692,79.14,70,100,19.1,PF,2021-04-23 18:54:18
tefe,-3.3542,-64.7114,86.0,79,40,6.91,BR,2021-04-23 18:58:57
new norfolk,-42.7826,147.0587,51.01,80,91,1.01,AU,2021-04-23 18:58:57
lebu,-37.6167,-73.65,59.02,76,65,5.61,CL,2021-04-23 18:58:57
tautira,-17.7333,-149.15,82.4,74,40,3.44,PF,2021-04-23 18:56:23
kapaa,22.0752,-159.319,77.0,69,90,11.5,US,2021-04-23 18:58:58
vaini,-21.2,-175.2,71.6,100,40,2.3,TO,2021-04-23 18:58:58
saskylakh,71.9167,114.0833,33.87,94,100,16.62,RU,2021-04-23 18:58:58
haines junction,60.7522,-137.5108,42.8,39,13,1.14,CA,2021-04-23 18:58:59
nikolskoye,59.7035,30.7861,43.0,70,75,6.71,RU,2021-04-23 18:57:42
tuktoyaktuk,69.4541,-133.0374,12.2,73,75,4.61,CA,2021-04-23 18:58:59
butaritari,3.0707,172.7902,82.15,76,89,11.5,KI,2021-04-23 18:55:58
leningradskiy,69.3833,178.4167,26.2,91,100,3.49,RU,2021-04-23 18:58:59
rurrenabaque,-14.4413,-67.5278,86.0,84,75,3.15,BO,2021-04-23 18:59:00
bonavista,48.6499,-53.1147,42.8,56,100,10.36,CA,2021-04-23 18:59:00
segovia,41.1667,-4.0,54.0,76,75,6.91,ES,2021-04-23 18:59:00
adrar,20.5022,-10.0711,87.66,7,0,6.98,MR,2021-04-23 18:59:00
ushuaia,-54.8,-68.3,42.8,87,75,3.44,AR,2021-04-23 18:54:33
san javier,37.8063,-0.8374,62.01,82,40,11.5,ES,2021-04-23 18:59:01
pisco,-13.7,-76.2167,69.8,73,0,9.22,PE,2021-04-23 18:59:01
alim,9.5649,122.4876,80.87,80,100,10.18,PH,2021-04-23 18:59:02
playa del carmen,20.6274,-87.0799,89.6,48,40,11.5,MX,2021-04-23 18:59:02
khandyga,62.6667,135.6,0.91,95,92,3.74,RU,2021-04-23 18:59:02
muros,42.7762,-9.0603,64.0,75,66,7.99,ES,2021-04-23 18:58:00
coromandel,-18.4733,-47.2003,83.17,22,0,7.54,BR,2021-04-23 18:59:02
lompoc,34.6391,-120.4579,55.0,71,1,3.44,US,2021-04-23 18:58:01
balykshi,47.0667,51.8667,46.4,100,75,8.95,KZ,2021-04-23 18:59:03
brasilia de minas,-16.2064,-44.4333,87.4,26,0,8.34,BR,2021-04-23 18:59:03
kaitangata,-46.2817,169.8464,44.11,94,21,4.7,NZ,2021-04-23 18:59:03
ambilobe,-13.2,49.05,74.57,81,100,5.64,MG,2021-04-23 18:54:17
pangnirtung,66.1451,-65.7125,26.6,80,40,4.61,CA,2021-04-23 18:59:04
bluff,-46.6,168.3333,43.0,95,43,1.01,NZ,2021-04-23 18:55:55
labuhan,-6.8844,112.2051,76.42,81,20,4.79,ID,2021-04-23 18:59:04
cap malheureux,-19.9842,57.6142,80.01,76,99,5.01,MU,2021-04-23 18:59:04
hilo,19.7297,-155.09,75.2,69,75,4.61,US,2021-04-23 18:54:57
yumen,40.2833,97.2,40.01,79,100,6.49,CN,2021-04-23 18:59:05
albany,42.6001,-73.9662,59.0,23,11,5.01,US,2021-04-23 18:54:37
quatre cocos,-20.2078,57.7625,80.01,78,40,10.36,MU,2021-04-23 18:59:05
erenhot,43.6475,111.9767,51.55,37,8,21.05,CN,2021-04-23 18:59:05
tonkino,57.3726,46.4629,47.57,73,100,7.11,RU,2021-04-23 18:59:06
clyde river,70.4692,-68.5914,19.4,93,1,10.36,CA,2021-04-23 18:57:10
thompson,55.7435,-97.8558,24.8,42,75,8.05,CA,2021-04-23 18:57:36
severo-kurilsk,50.6789,156.125,35.26,92,100,6.8,RU,2021-04-23 18:58:07
shangrao,28.4532,117.9686,65.77,89,1,5.12,CN,2021-04-23 18:59:06
bredasdorp,-34.5322,20.0403,51.8,93,99,3.44,ZA,2021-04-23 18:59:06
saint george,37.1041,-113.5841,75.99,15,0,1.01,US,2021-04-23 18:59:07
mahebourg,-20.4081,57.7,78.8,78,40,10.36,MU,2021-04-23 18:56:17
caravelas,-17.7125,-39.2481,77.95,75,79,5.84,BR,2021-04-23 18:59:07
khatanga,71.9667,102.5,33.13,97,100,21.65,RU,2021-04-23 18:56:09
port hardy,50.6996,-127.4199,50.0,76,75,10.36,CA,2021-04-23 18:57:48
pierre,44.3683,-100.351,37.4,87,90,14.97,US,2021-04-23 18:59:07
bethel,41.3712,-73.414,60.01,24,1,12.66,US,2021-04-23 18:59:08
ilulissat,69.2167,-51.1,41.0,52,20,12.66,GL,2021-04-23 18:55:55
saint-augustin,51.226,-58.6502,35.24,70,100,15.21,CA,2021-04-23 18:59:08
mandiana,10.6333,-8.6833,88.74,34,42,4.97,GN,2021-04-23 18:59:08
castro,-24.7911,-50.0119,70.41,46,11,3.11,BR,2021-04-23 18:58:35
hambantota,6.1241,81.1185,79.86,84,77,9.4,LK,2021-04-23 18:58:56
avarua,-21.2078,-159.775,78.8,78,100,11.5,CK,2021-04-23 18:59:09
hithadhoo,-0.6,73.0833,82.08,73,9,6.22,MV,2021-04-23 18:59:09
karratha,-20.7377,116.8463,76.62,35,0,7.47,AU,2021-04-23 18:59:09
lagoa,39.05,-27.9833,57.99,75,20,35.21,PT,2021-04-23 18:59:10
norman wells,65.282,-126.8329,24.8,58,20,8.05,CA,2021-04-23 18:59:10
poum,-20.2333,164.0167,78.06,81,85,8.3,NC,2021-04-23 18:59:10
ruse,43.8564,25.9708,48.99,82,59,7.0,BG,2021-04-23 18:59:11
isangel,-19.55,169.2667,78.49,84,59,10.58,VU,2021-04-23 18:59:11
cape town,-33.9258,18.4232,62.01,82,0,4.61,ZA,2021-04-23 18:57:56
dingle,10.9995,122.6711,76.64,84,100,5.08,PH,2021-04-23 18:56:41
cookeville,36.1628,-85.5016,51.8,71,75,4.61,US,2021-04-23 18:59:11
kropotkin,45.4375,40.5756,54.55,63,100,4.43,RU,2021-04-23 18:59:12
aklavik,68.2191,-135.0107,28.4,59,20,3.44,CA,2021-04-23 18:59:12
nanortalik,60.1432,-45.2371,37.18,84,16,4.81,GL,2021-04-23 18:56:16
tiksi,71.6872,128.8694,-0.17,100,96,6.93,RU,2021-04-23 18:59:12
barrow,71.2906,-156.7887,10.4,85,1,6.91,US,2021-04-23 18:59:12
flinders,-34.5833,150.8552,51.01,78,58,1.01,AU,2021-04-23 18:59:13
odweyne,9.4092,45.064,72.88,57,27,4.14,SO,2021-04-23 18:59:13
dunedin,-45.8742,170.5036,52.0,91,9,1.01,NZ,2021-04-23 18:59:13
puerto ayora,-0.7393,-90.3518,82.4,74,20,14.97,EC,2021-04-23 18:59:14
mitsamiouli,-11.3847,43.2844,80.8,80,89,12.75,KM,2021-04-23 18:59:14
andenes,69.3143,16.1194,35.6,64,40,14.97,NO,2021-04-23 18:59:14
carnarvon,-24.8667,113.6333,64.4,88,0,9.22,AU,2021-04-23 18:55:53
atuona,-9.8,-139.0333,80.13,80,27,21.65,PF,2021-04-23 18:59:14
busselton,-33.65,115.3333,63.0,72,100,4.0,AU,2021-04-23 18:59:15
panguna,-6.3164,155.4848,66.54,96,100,2.37,PG,2021-04-23 18:59:15
cabo san lucas,22.8909,-109.9124,82.0,43,40,9.22,MX,2021-04-23 18:58:36
rocha,-34.4833,-54.3333,73.96,65,0,9.84,UY,2021-04-23 18:58:53
upernavik,72.7868,-56.1549,33.42,72,100,6.62,GL,2021-04-23 18:59:15
qaanaaq,77.484,-69.3632,23.45,80,100,6.44,GL,2021-04-23 18:56:04
prince rupert,54.3161,-130.3201,50.0,66,1,4.61,CA,2021-04-23 18:59:16
xining,36.6167,101.7667,47.37,89,100,3.98,CN,2021-04-23 18:58:38
jizan,17.3333,42.6667,87.8,51,20,2.59,SA,2021-04-23 18:59:00
kalmunai,7.4167,81.8167,80.87,79,5,4.23,LK,2021-04-23 18:59:16
barcelona,41.3888,2.159,60.01,63,20,3.44,ES,2021-04-23 18:58:58
waipawa,-41.4122,175.5153,57.99,94,20,8.05,NZ,2021-04-23 18:59:16
chuy,-33.6971,-53.4616,71.87,70,63,12.15,UY,2021-04-23 18:59:17
kralendijk,12.15,-68.2667,86.0,62,40,21.85,BQ,2021-04-23 18:59:17
sorland,67.667,12.6934,35.6,80,40,16.11,NO,2021-04-23 18:59:17
sam chuk,14.7576,100.0899,86.0,72,67,10.78,TH,2021-04-23 18:59:18
simpang,-1.2667,104.0833,73.65,97,100,2.84,ID,2021-04-23 18:59:18
geraldton,-28.7667,114.6,60.8,82,40,4.61,AU,2021-04-23 18:59:18
coihaique,-45.5752,-72.0662,53.6,54,75,9.22,CL,2021-04-23 18:59:18
maragogi,-9.0122,-35.2225,81.81,74,0,7.16,BR,2021-04-23 18:59:19
ahuimanu,21.4447,-157.8378,78.8,69,40,12.66,US,2021-04-23 18:59:19
provideniya,64.3833,-173.3,36.57,64,95,3.06,RU,2021-04-23 18:59:19
mazamari,-11.3258,-74.5308,88.16,49,41,1.66,PE,2021-04-23 18:59:20
sovetskiy,61.3614,63.5842,38.57,95,100,4.41,RU,2021-04-23 18:58:11
waw,7.7029,27.9953,85.53,50,100,3.53,SS,2021-04-23 18:59:20
hereford,52.0568,-2.7148,48.63,81,100,7.25,GB,2021-04-23 18:59:20
polyarnyy,69.1989,33.4478,32.0,69,75,8.95,RU,2021-04-23 18:59:20
ebolowa,2.9,11.15,71.26,97,100,1.59,CM,2021-04-23 18:59:21
half moon bay,37.4636,-122.4286,64.99,76,75,10.36,US,2021-04-23 18:59:21
esperance,-33.8667,121.9,55.4,94,100,9.22,AU,2021-04-23 18:59:21
mecca,21.4267,39.8261,86.29,32,7,1.99,SA,2021-04-23 18:59:22
berlevag,70.8578,29.0864,32.0,74,20,4.61,NO,2021-04-23 18:59:22
quelimane,-17.8786,36.8883,70.9,83,0,3.44,MZ,2021-04-23 18:59:22
chapais,49.7834,-74.8492,46.4,21,1,23.02,CA,2021-04-23 18:59:22
luwuk,-0.9516,122.7875,77.54,83,100,3.83,ID,2021-04-23 18:59:23
port elizabeth,-33.918,25.5701,64.4,82,0,16.11,ZA,2021-04-23 18:59:23
agropoli,40.3469,14.9966,60.01,71,100,15.99,IT,2021-04-23 18:59:23
vao,-22.6667,167.4833,75.33,78,92,11.97,NC,2021-04-23 18:57:53
lorengau,-2.0226,147.2712,79.5,78,91,4.65,PG,2021-04-23 18:59:24
zephyrhills,28.2336,-82.1812,82.0,44,75,8.88,US,2021-04-23 18:57:01
djibo,14.1022,-1.6306,98.83,13,87,10.0,BF,2021-04-23 18:59:24
camana,-16.6228,-72.7111,71.26,70,19,9.08,PE,2021-04-23 18:59:24
arraial do cabo,-22.9661,-42.0278,77.0,78,0,18.41,BR,2021-04-23 18:59:24
margate,51.3813,1.3862,46.99,64,37,4.0,GB,2021-04-23 18:59:25
uglovskoye,51.3557,80.1942,33.37,60,9,7.52,RU,2021-04-23 18:59:25
vostok,46.4856,135.8833,44.85,79,100,5.23,RU,2021-04-23 18:59:25
mesaria,36.3985,25.4459,66.99,63,0,5.75,GR,2021-04-23 18:59:26
nuristan,35.3,70.8333,22.08,39,0,13.2,AF,2021-04-23 18:59:26
ostersund,63.1792,14.6357,33.8,55,4,14.97,SE,2021-04-23 18:59:26
batagay-alyta,67.8006,130.4114,-8.63,92,30,6.49,RU,2021-04-23 18:59:26
avera,33.194,-82.5271,71.01,24,1,6.91,US,2021-04-23 18:59:27
colesberg,-30.72,25.0972,62.53,27,0,9.17,ZA,2021-04-23 18:59:27
yeniseysk,58.4497,92.1703,26.83,96,37,2.95,RU,2021-04-23 18:59:27
emba,48.8264,58.1442,51.57,54,100,16.73,KZ,2021-04-23 18:59:27
ewa beach,21.3156,-158.0072,78.8,61,1,8.05,US,2021-04-23 18:58:24
portland,45.5234,-122.6762,57.99,58,75,10.36,US,2021-04-23 18:51:39
wattegama,6.7989,81.4808,75.49,91,6,3.36,LK,2021-04-23 18:59:28
vitim,59.4511,112.5578,30.63,95,100,5.1,RU,2021-04-23 18:59:28
hovd,48.0056,91.6419,31.6,50,0,1.86,MN,2021-04-23 18:59:29
nizwa,22.9333,57.5333,85.01,14,3,7.16,OM,2021-04-23 18:58:12
dragor,55.5946,12.6664,48.0,53,75,10.36,DK,2021-04-23 18:59:29
murray,40.6669,-111.888,61.0,41,40,5.75,US,2021-04-23 18:59:29
bereda,43.2686,-7.5406,61.0,96,100,1.01,ES,2021-04-23 18:59:29
ramhormoz,31.28,49.6035,88.47,10,100,2.35,IR,2021-04-23 18:59:30
torbay,47.6666,-52.7314,46.4,57,90,21.85,CA,2021-04-23 18:59:30
gdov,58.7406,27.8122,35.76,93,66,8.75,RU,2021-04-23 18:59:30
hamilton,39.1834,-84.5333,60.01,38,90,8.05,US,2021-04-23 18:59:30
ust-nera,64.5667,143.2,-3.03,96,98,1.48,RU,2021-04-23 18:56:30
mariinskiy posad,56.115,47.718,48.2,71,0,6.71,RU,2021-04-23 18:59:31
saint-michel-des-saints,46.6834,-73.9159,50.0,35,6,16.46,CA,2021-04-23 18:59:31
maxixe,-23.8597,35.3472,69.4,77,14,2.15,MZ,2021-04-23 18:59:31
arlit,18.7369,7.3853,93.49,7,78,9.75,NE,2021-04-23 18:59:32
hobyo,5.3505,48.5268,84.04,65,98,13.53,SO,2021-04-23 18:59:32
bontang,0.1333,117.5,75.96,90,69,7.87,ID,2021-04-23 18:59:32
nuuk,64.1835,-51.7216,32.0,93,90,3.44,GL,2021-04-23 18:59:32
xai-xai,-25.0519,33.6442,67.21,92,100,4.18,MZ,2021-04-23 18:59:33
shuyskoye,59.3736,41.0305,48.92,84,100,10.65,RU,2021-04-23 18:59:33
verkhnyaya inta,65.9811,60.3094,37.47,94,95,13.33,RU,2021-04-23 18:59:33
ahipara,-35.1667,173.1667,61.21,82,26,10.54,NZ,2021-04-23 18:59:34
port blair,11.6667,92.75,81.0,74,100,7.52,IN,2021-04-23 18:59:34
udachnyy,66.4167,112.4,24.26,87,100,8.79,RU,2021-04-23 18:59:34
presque isle,46.6811,-68.0159,42.8,56,90,27.63,US,2021-04-23 18:59:35
imeni poliny osipenko,52.4201,136.4853,28.8,75,62,2.17,RU,2021-04-23 18:59:35
mar del plata,-38.0023,-57.5575,77.0,65,40,6.91,AR,2021-04-23 18:58:25
westport,41.1415,-73.3579,60.01,24,1,16.11,US,2021-04-23 18:59:35
marawi,7.9986,124.2928,75.0,93,100,1.99,PH,2021-04-23 18:59:36
vila,42.0304,-8.1588,57.0,91,100,1.99,PT,2021-04-23 18:59:36
yerofey pavlovich,53.9667,121.9667,24.31,69,4,4.05,RU,2021-04-23 18:59:36
kodiak,57.79,-152.4072,39.2,87,90,11.5,US,2021-04-23 18:59:36
mayumba,-3.432,10.6554,78.96,86,100,5.77,GA,2021-04-23 18:59:37
santa maria,-29.6842,-53.8069,84.2,34,20,8.05,BR,2021-04-23 18:57:57
victoria,22.2855,114.1577,79.0,84,8,1.01,HK,2021-04-23 18:59:37
sao filipe,14.8961,-24.4956,71.78,76,16,10.38,CV,2021-04-23 18:59:37
binzhou,37.3667,118.0167,51.39,88,100,11.63,CN,2021-04-23 18:59:38
jakar,27.5492,90.7525,46.36,81,49,3.49,BT,2021-04-23 18:59:38
kruisfontein,-34.0033,24.7314,68.0,76,0,4.0,ZA,2021-04-23 18:59:38
roblin,51.23,-101.3565,33.44,29,85,11.61,CA,2021-04-23 18:59:14
makat,47.6469,53.3463,51.15,74,34,7.76,KZ,2021-04-23 18:59:39
berezovyy,51.6667,135.7,30.6,84,93,2.77,RU,2021-04-23 18:59:39
fukue,32.6881,128.8419,64.76,80,99,9.4,JP,2021-04-23 18:59:39
hasaki,35.7333,140.8333,46.4,87,0,8.05,JP,2021-04-23 18:57:33
liku,-0.7275,119.8922,74.46,94,100,1.74,ID,2021-04-23 18:59:39
salinopolis,-0.6136,-47.3561,81.81,79,52,7.56,BR,2021-04-23 18:59:40
kingaroy,-26.5333,151.8333,37.4,87,0,2.3,AU,2021-04-23 18:59:40
luderitz,-26.6481,15.1594,63.68,80,28,7.18,NA,2021-04-23 18:56:55
tura,25.5198,90.2201,73.8,32,85,3.02,IN,2021-04-23 18:59:22
norsup,-16.0667,167.3833,80.44,81,70,7.96,VU,2021-04-23 18:57:33
calatrava,10.595,123.4838,80.6,78,40,4.61,PH,2021-04-23 18:59:41
hami,42.8,93.45,47.62,31,32,11.3,CN,2021-04-23 18:59:41
giron,7.0682,-73.1698,80.6,65,40,13.8,CO,2021-04-23 18:59:41
airai,-8.9266,125.4092,57.2,90,50,2.64,TL,2021-04-23 18:55:56
pimentel,-6.8367,-79.9342,78.8,53,0,18.41,PE,2021-04-23 18:59:41
guerrero negro,27.9769,-114.0611,65.14,57,15,19.26,MX,2021-04-23 18:58:58
buxar,25.5833,83.9833,84.31,19,15,1.7,IN,2021-04-23 18:59:42
saint-jovite,46.1186,-74.5966,57.2,33,90,5.75,CA,2021-04-23 18:59:42
bo phloi,14.3236,99.5161,80.85,73,100,6.58,TH,2021-04-23 18:59:42
zhanaozen,43.3,52.8,55.15,64,0,14.0,KZ,2021-04-23 18:58:33
jember,-8.166,113.7032,70.75,94,33,0.94,ID,2021-04-23 18:59:43
sidi ali,36.0998,0.4206,59.36,75,100,14.5,DZ,2021-04-23 18:59:43
francisco sa,-16.4758,-43.4883,84.2,42,0,6.85,BR,2021-04-23 18:59:43
marsabit,2.3284,37.9899,67.96,73,21,10.71,KE,2021-04-23 18:59:44
ixtapa,20.7,-105.2,82.4,65,1,11.5,MX,2021-04-23 18:59:44
cockburn town,21.4612,-71.1419,82.4,65,40,10.36,TC,2021-04-23 18:56:02
paita,-5.0892,-81.1144,86.0,48,0,13.8,PE,2021-04-23 18:59:44
manglisi,41.697,44.3845,57.2,41,0,5.75,GE,2021-04-23 18:59:45
jingdezhen,29.2947,117.2079,62.13,93,11,4.45,CN,2021-04-23 18:59:45
umm kaddadah,13.6017,26.6876,86.31,13,1,9.82,SD,2021-04-23 18:59:45
kahului,20.8947,-156.47,77.0,57,20,11.95,US,2021-04-23 18:59:45
alofi,-19.0595,-169.9187,71.6,100,8,1.14,NU,2021-04-23 18:59:46
bathsheba,13.2167,-59.5167,86.0,54,20,19.57,BB,2021-04-23 18:59:46
presidencia roque saenz pena,-26.7852,-60.4388,71.24,88,99,5.86,AR,2021-04-23 18:59:46
humaita,-7.5061,-63.0208,86.09,66,100,0.81,BR,2021-04-23 18:59:47
portobelo,9.55,-79.65,90.0,66,100,5.01,PA,2021-04-23 18:59:47
kualakapuas,-3.0091,114.3876,73.4,100,95,1.14,ID,2021-04-23 18:59:47
akdepe,42.0551,59.3788,64.4,29,0,9.22,TM,2021-04-23 18:59:47
la paz,-16.5,-68.15,57.2,33,40,14.97,BO,2021-04-23 18:59:33
grindavik,63.8424,-22.4338,46.4,87,90,18.41,IS,2021-04-23 18:59:48
faanui,-16.4833,-151.75,80.06,75,88,11.54,PF,2021-04-23 18:59:48
along,28.1667,94.7667,64.96,81,74,2.28,IN,2021-04-23 18:59:48
culleredo,43.2879,-8.3886,64.4,82,20,1.14,ES,2021-04-23 18:59:49
salalah,17.0151,54.0924,84.2,74,40,4.61,OM,2021-04-23 18:59:49
providencia,28.7167,-111.5833,81.0,41,0,3.0,MX,2021-04-23 18:59:49
takoradi,4.8845,-1.7554,82.85,81,100,12.68,GH,2021-04-23 18:59:49
bambous virieux,-20.3428,57.7575,80.01,78,40,10.36,MU,2021-04-23 18:55:07
oranjemund,-28.55,16.4333,60.6,90,21,4.59,NA,2021-04-23 18:59:50
saldanha,-33.0117,17.9442,59.0,77,81,4.61,ZA,2021-04-23 18:57:04
jinan,36.6683,116.9972,53.01,89,100,1.01,CN,2021-04-23 18:59:50
talnakh,69.4865,88.3972,32.23,94,100,11.23,RU,2021-04-23 18:57:23
codrington,-38.2667,141.9667,53.58,86,100,7.92,AU,2021-04-23 18:56:20
caala,-12.8525,15.5606,62.89,69,100,1.12,AO,2021-04-23 18:59:51
komsomolskiy,40.4272,71.7189,55.4,50,0,9.22,UZ,2021-04-23 18:58:45
akyab,20.15,92.9,82.36,80,3,8.46,MM,2021-04-23 18:59:51
ketchikan,55.3422,-131.6461,50.0,53,1,10.36,US,2021-04-23 18:59:51
biga,40.2281,27.2422,62.6,59,75,9.22,TR,2021-04-23 18:59:52
antibes,43.5624,7.1278,60.8,67,40,2.3,FR,2021-04-23 18:59:52
katsuura,35.1333,140.3,53.6,71,0,10.36,JP,2021-04-23 18:56:31
northam,51.0333,-4.2167,48.0,15,100,1.01,GB,2021-04-23 18:59:52
mocuba,-16.8392,36.9856,67.68,96,0,3.09,MZ,2021-04-23 18:59:53
east london,-33.0153,27.9116,64.4,88,0,9.22,ZA,2021-04-23 18:59:53
krasnoselkup,65.7,82.4667,30.52,88,71,17.96,RU,2021-04-23 18:59:53
igaci,-9.5369,-36.6336,85.82,58,38,11.39,BR,2021-04-23 18:59:53
vila franca do campo,37.7167,-25.4333,60.8,63,40,24.16,PT,2021-04-23 18:59:54
olavarria,-36.8927,-60.3225,71.6,78,90,2.3,AR,2021-04-23 18:59:54
pingliang,35.5392,106.6861,49.15,96,100,6.38,CN,2021-04-23 18:59:54
prachuap khiri khan,12.2167,99.75,75.72,82,100,4.41,TH,2021-04-23 18:59:55
bandarbeyla,9.4942,50.8122,83.68,74,100,10.85,SO,2021-04-23 18:59:55
zhuhai,22.2769,113.5678,78.8,94,40,3.44,CN,2021-04-23 18:59:55
yugo-kamskiy,57.7053,55.5894,39.2,87,20,4.47,RU,2021-04-23 18:59:55
laguna,38.421,-121.4238,66.99,55,1,6.91,US,2021-04-23 18:59:56
malartic,48.1335,-78.1328,57.99,28,20,12.66,CA,2021-04-23 18:59:56
padang,-0.9492,100.3543,76.33,84,100,3.56,ID,2021-04-23 18:59:26
saint anthony,45.0205,-93.218,48.2,66,90,6.91,US,2021-04-23 18:59:56
meulaboh,4.1363,96.1285,77.49,84,100,2.13,ID,2021-04-23 18:59:57
cascais,38.6979,-9.4215,61.0,94,40,13.8,PT,2021-04-23 18:59:57
langxiang,46.95,128.8833,36.45,92,100,4.59,CN,2021-04-23 18:59:57
vardo,70.3705,31.1107,35.6,64,40,9.22,NO,2021-04-23 18:56:49
rawson,-43.3002,-65.1023,63.39,40,3,23.76,AR,2021-04-23 18:56:06
pacific grove,36.6177,-121.9166,59.0,67,90,6.91,US,2021-04-23 18:59:58
port keats,-14.25,129.55,79.36,41,100,7.72,AU,2021-04-23 18:59:58
sukkur,27.7052,68.8574,82.4,42,0,9.28,PK,2021-04-23 18:59:58
kieta,-6.2167,155.6333,77.02,85,100,1.14,PG,2021-04-23 18:59:58
copiapo,-27.3667,-70.3333,66.2,48,20,10.36,CL,2021-04-23 18:59:27
yar-sale,66.8333,70.8333,34.66,99,100,11.97,RU,2021-04-23 18:59:38
gazimurskiy zavod,51.5461,118.3266,27.43,31,100,2.73,RU,2021-04-23 18:59:59
ginir,7.1333,40.7,58.15,90,51,3.13,ET,2021-04-23 18:59:59
turukhansk,65.8167,87.9833,24.62,89,66,11.54,RU,2021-04-23 19:00:00
vite,17.2833,74.55,81.21,38,89,2.89,IN,2021-04-23 19:00:00
hermanus,-34.4187,19.2345,61.0,81,100,1.01,ZA,2021-04-23 19:00:00
naryan-mar,67.6713,53.087,34.86,81,100,10.87,RU,2021-04-23 19:00:00
mundo nuevo,18.7,-95.5,84.78,66,100,11.56,MX,2021-04-23 19:00:01
quime,-16.9833,-67.2167,54.32,82,97,5.03,BO,2021-04-23 19:00:01
micheweni,-4.9667,39.8333,80.08,82,83,11.39,TZ,2021-04-23 19:00:02
sola,-13.8833,167.55,78.8,94,20,15.32,VU,2021-04-23 18:58:17
surt,31.2089,16.5887,74.16,56,100,11.32,LY,2021-04-23 19:00:04
lodja,-3.4833,23.4333,70.56,98,100,2.64,CD,2021-04-23 19:00:05
buchanan,5.8808,-10.0467,81.61,82,97,8.7,LR,2021-04-23 18:58:43
parrita,9.5201,-84.3225,82.4,57,40,16.11,CR,2021-04-23 19:00:05
tuatapere,-46.1333,167.6833,43.0,95,95,1.01,NZ,2021-04-23 19:00:06
seoul,37.5683,126.9778,62.6,39,0,14.97,KR,2021-04-23 18:55:39
klaksvik,62.2266,-6.589,44.6,100,75,6.91,FO,2021-04-23 18:59:54
manta,-0.95,-80.7333,80.6,78,75,8.05,EC,2021-04-23 19:00:08
novopavlovka,51.2172,109.2091,32.4,54,100,4.61,RU,2021-04-23 19:00:08
redcliffe,-27.2307,153.0973,55.0,87,20,8.05,AU,2021-04-23 19:00:09
lyuban,52.7985,28.0048,38.44,76,100,11.07,BY,2021-04-23 19:00:10
jaguaruna,-28.615,-49.0256,71.01,72,23,9.42,BR,2021-04-23 19:00:11
comodoro rivadavia,-45.8667,-67.5,51.8,87,75,3.44,AR,2021-04-23 18:56:37
benghazi,32.1167,20.0667,77.81,32,100,12.44,LY,2021-04-23 19:00:12
deputatskiy,69.3,139.9,-8.18,96,33,4.27,RU,2021-04-23 18:58:40
aksu,41.1231,80.2644,52.41,44,0,5.64,CN,2021-04-23 19:00:12
chokurdakh,70.6333,147.9167,-13.31,99,69,2.33,RU,2021-04-23 19:00:13
shelburne,44.0787,-80.2041,62.6,29,20,13.8,CA,2021-04-23 19:00:13
beringovskiy,63.05,179.3167,21.6,82,99,6.76,RU,2021-04-23 19:00:14
weinan,34.5036,109.5089,57.0,94,90,15.66,CN,2021-04-23 19:00:14
ribeira grande,38.5167,-28.7,59.0,77,40,29.93,PT,2021-04-23 19:00:15
bubaque,11.2833,-15.8333,78.4,70,7,17.07,GW,2021-04-23 18:58:17
yerbogachen,61.2767,108.0108,30.2,83,99,4.74,RU,2021-04-23 18:59:31
palencia,42.4167,-4.5,61.0,63,56,4.0,ES,2021-04-23 19:00:16
souillac,-20.5167,57.5167,78.8,78,40,10.36,MU,2021-04-23 18:57:10
christchurch,-43.5333,172.6333,51.01,66,10,5.75,NZ,2021-04-23 19:00:08
maceio,-9.6658,-35.7353,82.4,74,20,10.36,BR,2021-04-23 19:00:16
georgetown,5.4112,100.3354,78.8,94,40,6.04,MY,2021-04-23 19:00:17
kirakira,-10.4544,161.9205,78.67,82,99,2.77,SB,2021-04-23 18:58:38
manokwari,-0.8667,134.0833,78.69,80,100,2.39,ID,2021-04-23 18:55:36
hays,30.0502,-98.0336,72.0,95,100,3.0,US,2021-04-23 19:00:17
tomohon,1.3346,124.8392,77.0,88,20,1.32,ID,2021-04-23 19:00:18
vila velha,-20.3297,-40.2925,82.0,65,20,10.36,BR,2021-04-23 19:00:18
sosnovo-ozerskoye,52.5249,111.5418,27.73,37,100,3.47,RU,2021-04-23 19:00:19
honiara,-9.4333,159.95,76.32,88,22,2.71,SB,2021-04-23 19:00:07
rabo de peixe,37.8,-25.5833,60.8,63,40,24.16,PT,2021-04-23 19:00:19
siguiri,11.6667,-9.5,95.85,23,65,1.43,GN,2021-04-23 19:00:20
killarney,52.05,-9.5167,57.2,51,0,12.66,IE,2021-04-23 19:00:20
mukhen,48.1,136.1,44.55,72,100,9.71,RU,2021-04-23 19:00:21
nanakuli,21.3906,-158.1547,77.0,61,1,8.05,US,2021-04-23 19:00:21
olafsvik,64.8945,-23.7142,43.14,93,100,10.92,IS,2021-04-23 19:00:22
beloha,-25.1667,45.05,73.6,71,67,10.76,MG,2021-04-23 18:57:44
bac lieu,9.285,105.7244,79.84,81,100,5.08,VN,2021-04-23 19:00:22
yarada,17.65,83.2667,77.0,88,75,2.3,IN,2021-04-23 19:00:23
mana,5.6592,-53.7767,79.47,85,100,11.99,GF,2021-04-23 18:59:54
aripuana,-9.1667,-60.6333,79.18,88,100,1.54,BR,2021-04-23 19:00:23
ternate,0.8,127.4,81.18,78,94,4.74,ID,2021-04-23 19:00:24
gdansk,54.3521,18.6464,41.0,52,0,6.91,PL,2021-04-23 18:59:43
kharp,66.8014,65.8081,33.48,98,100,2.66,RU,2021-04-23 18:58:44
praia da vitoria,38.7333,-27.0667,61.0,77,75,33.84,PT,2021-04-23 19:00:25
viedma,-40.8135,-62.9967,73.9,31,92,8.63,AR,2021-04-23 18:57:17
sol-iletsk,51.1631,54.9918,46.67,90,100,12.68,RU,2021-04-23 19:00:25
tocopilla,-22.092,-70.1979,68.83,65,8,7.61,CL,2021-04-23 19:00:26
nogales,31.3086,-110.9422,72.0,28,1,4.61,MX,2021-04-23 19:00:26
kavieng,-2.5744,150.7967,78.64,82,100,5.91,PG,2021-04-23 18:57:48
antofagasta,-23.65,-70.4,69.01,63,20,14.97,CL,2021-04-23 18:58:18
flin flon,54.7682,-101.865,28.4,46,75,11.5,CA,2021-04-23 18:57:18
los llanos de aridane,28.6585,-17.9182,73.4,60,20,9.22,ES,2021-04-23 18:59:27
chitral,35.8462,71.7858,48.29,36,0,8.28,PK,2021-04-23 19:00:27
port macquarie,-31.4333,152.9167,50.0,85,5,4.0,AU,2021-04-23 19:00:27
kang,-23.6752,22.7876,65.62,30,0,4.97,BW,2021-04-23 19:00:28
acapulco,16.8634,-99.8901,87.8,62,90,5.75,MX,2021-04-23 18:58:12
cherskiy,68.75,161.3,17.17,93,100,9.13,RU,2021-04-23 19:00:28
umm lajj,25.0213,37.2685,82.89,50,10,7.11,SA,2021-04-23 19:00:29
kaspi,41.9252,44.4257,57.2,41,0,5.75,GE,2021-04-23 19:00:29
lopukhiv,48.3653,23.9638,33.51,88,36,2.13,UA,2021-04-23 19:00:30
port-gentil,-0.7193,8.7815,81.03,82,88,11.48,GA,2021-04-23 18:58:31
kloulklubed,7.0419,134.2556,77.0,88,75,5.59,PW,2021-04-23 19:00:30
caucasia,7.9865,-75.1935,92.01,52,89,4.7,CO,2021-04-23 19:00:15
cidreira,-30.1811,-50.2056,72.03,74,0,16.17,BR,2021-04-23 18:59:57
waddan,29.1614,16.139,88.7,12,68,14.23,LY,2021-04-23 19:00:31
broome,42.2506,-75.833,57.0,30,1,16.11,US,2021-04-23 19:00:31
mount isa,-20.7333,139.5,66.2,27,22,14.97,AU,2021-04-23 19:00:32
matongo,-2.3833,34.0833,64.13,95,100,3.04,TZ,2021-04-23 19:00:32
liverpool,53.4106,-2.9779,62.6,42,100,5.75,GB,2021-04-23 19:00:33
digha,21.6833,87.55,81.16,74,57,10.69,IN,2021-04-23 19:00:33
muroto,33.2833,134.15,62.71,66,100,13.09,JP,2021-04-23 19:00:34
chalons-en-champagne,48.9539,4.3672,57.2,33,0,9.22,FR,2021-04-23 19:00:34
brae,60.3964,-1.353,46.4,76,100,6.91,GB,2021-04-23 19:00:34
longyearbyen,78.2186,15.6401,17.6,62,40,3.44,SJ,2021-04-23 18:57:39
sandpoint,48.2766,-116.5533,53.01,46,90,4.61,US,2021-04-23 19:00:35
dikson,73.5069,80.5464,32.23,97,100,20.0,RU,2021-04-23 18:58:04
atar,20.5169,-13.0499,96.8,20,0,13.8,MR,2021-04-23 19:00:36
ancud,-41.8697,-73.8203,59.0,76,40,9.22,CL,2021-04-23 19:00:36
mangrol,21.1167,70.1167,80.51,77,80,9.64,IN,2021-04-23 18:59:41
natal,-5.795,-35.2094,87.8,66,20,13.8,BR,2021-04-23 19:00:22
bol,13.4586,14.7147,85.26,45,82,9.24,TD,2021-04-23 19:00:37
clarence town,-32.5833,151.7833,51.01,93,100,8.05,AU,2021-04-23 18:58:45
bull savanna,17.8868,-77.5902,82.58,61,4,12.57,JM,2021-04-23 19:00:37
sao jose da coroa grande,-8.8978,-35.1478,82.17,72,4,7.47,BR,2021-04-23 18:56:26
naze,28.3667,129.4833,64.74,69,100,25.64,JP,2021-04-23 19:00:38
novyy urengoy,66.0833,76.6333,34.23,99,100,13.96,RU,2021-04-23 19:00:39
mildura,-34.2,142.15,53.6,76,90,4.61,AU,2021-04-23 19:00:39
poronaysk,49.2167,143.1167,35.51,92,99,4.32,RU,2021-04-23 19:00:40
kalat,29.0225,66.5916,61.41,28,0,4.18,PK,2021-04-23 19:00:40
yarmouth,41.7057,-70.2286,54.0,47,40,25.32,US,2021-04-23 18:58:54
guasdualito,7.2424,-70.7324,89.6,55,84,5.75,VE,2021-04-23 19:00:31
bilibino,68.0546,166.4372,12.87,92,100,5.73,RU,2021-04-23 19:00:41
meadow lake,34.8014,-106.5436,64.0,33,75,19.57,US,2021-04-23 19:00:11
chimbote,-9.0853,-78.5783,71.65,76,13,11.32,PE,2021-04-23 19:00:41
richards bay,-28.783,32.0377,66.11,84,100,9.13,ZA,2021-04-23 19:00:42
limoeiro do norte,-5.1456,-38.0981,86.11,62,94,3.76,BR,2021-04-23 19:00:42
morros,-9.4467,-46.3003,86.04,53,74,2.01,BR,2021-04-23 19:00:43
clonakilty,51.6231,-8.8706,51.8,66,40,18.41,IE,2021-04-23 19:00:43
chapleau,47.8405,-83.4034,60.8,21,75,12.66,CA,2021-04-23 19:00:10
bengkulu,-3.8004,102.2655,74.39,90,70,4.29,ID,2021-04-23 19:00:44
san quintin,30.4833,-115.95,62.91,65,26,18.07,MX,2021-04-23 19:00:44
lasa,46.6166,10.7002,69.8,32,0,2.3,IT,2021-04-23 18:59:17
ushtobe,45.2514,77.9838,33.94,37,0,10.4,KZ,2021-04-23 19:00:45
kysyl-syr,63.8986,122.7617,10.83,96,24,6.22,RU,2021-04-23 19:00:45
canutama,-6.5339,-64.3831,90.05,53,100,2.21,BR,2021-04-23 19:00:46
vaitape,-16.5167,-151.75,80.02,75,89,11.63,PF,2021-04-23 19:00:46
roebourne,-20.7833,117.1333,76.84,30,0,7.65,AU,2021-04-23 19:00:47
san cristobal,7.7669,-72.225,89.6,55,40,9.22,VE,2021-04-23 18:57:28
balakhninskiy,58.0106,114.2769,24.62,99,99,1.63,RU,2021-04-23 19:00:48
venado tuerto,-33.7456,-61.9688,64.99,70,100,7.94,AR,2021-04-23 19:00:48
sao joao da barra,-21.6403,-41.0511,84.2,48,0,6.91,BR,2021-04-23 19:00:48
turayf,31.6725,38.6637,80.6,24,0,11.5,SA,2021-04-23 18:58:01
fulton,33.7668,-84.4499,70.0,27,20,5.75,US,2021-04-23 19:00:49
wonthaggi,-38.6044,145.5913,55.99,79,100,13.58,AU,2021-04-23 19:00:49
cairns,-16.9167,145.7667,75.2,78,100,11.5,AU,2021-04-23 19:00:35
jerusalem,31.769,35.2163,70.0,51,83,1.01,IL,2021-04-23 19:00:00
yaan,7.3833,8.5667,77.58,83,100,12.15,NG,2021-04-23 19:00:50
husavik,66.0449,-17.3389,51.8,54,0,8.05,IS,2021-04-23 19:00:50
nakhon phanom,17.3333,104.4167,81.18,65,60,3.0,TH,2021-04-23 19:00:51
svetlaya,46.5389,138.3297,44.02,87,99,7.38,RU,2021-04-23 19:00:51
pevek,69.7008,170.3133,4.73,96,61,5.88,RU,2021-04-23 18:59:38
sobolevo,54.4299,31.8996,37.42,74,16,5.55,RU,2021-04-23 19:00:52
troy,42.6056,-83.1499,64.0,25,1,11.5,US,2021-04-23 18:55:59
camacha,33.0833,-16.3333,64.4,68,40,19.57,PT,2021-04-23 18:56:53
tingo maria,-9.2895,-76.0088,84.2,61,40,2.3,PE,2021-04-23 18:59:16
uyaan,7.8631,124.0411,63.43,95,98,2.39,PH,2021-04-23 19:00:53
marsh harbour,26.5412,-77.0636,73.26,70,35,16.24,BS,2021-04-23 19:00:53
inhambane,-23.865,35.3833,70.66,74,11,2.98,MZ,2021-04-23 19:00:54
arrecife,28.963,-13.5477,75.2,64,40,11.5,ES,2021-04-23 19:00:54
tibiri,13.5627,7.0485,100.4,10,0,2.3,NE,2021-04-23 19:00:55
asau,46.4333,26.4,39.0,68,81,1.77,RO,2021-04-23 19:00:55
kudahuvadhoo,2.6708,72.8944,83.3,67,4,10.98,MV,2021-04-23 19:00:20
kuala terengganu,5.3302,103.1408,75.2,94,40,3.44,MY,2021-04-23 19:00:56
ruwi,23.5996,58.5507,89.6,13,0,2.3,OM,2021-04-23 19:00:56
namatanai,-3.6667,152.4333,76.8,84,100,3.8,PG,2021-04-23 18:57:53
san luis,-33.295,-66.3356,64.15,76,84,9.78,AR,2021-04-23 19:00:57
sitka,57.0531,-135.33,51.8,37,1,3.11,US,2021-04-23 18:57:41
urumqi,43.801,87.6005,37.4,65,75,8.95,CN,2021-04-23 19:00:58
muisne,0.6,-80.0333,80.6,89,75,5.75,EC,2021-04-23 19:00:58
farmington,36.7281,-108.2187,61.0,27,1,17.27,US,2021-04-23 19:00:10
pastos bons,-6.6017,-44.0767,83.52,75,98,3.44,BR,2021-04-23 19:00:58
ponta do sol,32.6667,-17.1,63.0,77,51,3.0,PT,2021-04-23 18:57:34
sawang daen din,17.4753,103.4575,82.99,80,11,8.23,TH,2021-04-23 19:00:59
ellsworth,44.5434,-68.4195,55.0,35,20,12.66,US,2021-04-23 19:01:00
dukat,62.55,155.55,19.56,95,100,3.06,RU,2021-04-23 19:01:00
ozernovskiy,51.5,156.5167,34.21,96,100,4.68,RU,2021-04-23 19:01:01
damghan,36.1683,54.348,66.63,54,100,9.46,IR,2021-04-23 19:01:01
luziania,-16.2525,-47.9503,82.0,44,40,5.75,BR,2021-04-23 19:01:01
mao,39.8885,4.2658,57.2,82,0,9.22,ES,2021-04-23 18:59:51
svirsk,53.0858,103.3325,33.24,65,100,5.61,RU,2021-04-23 19:01:02
bluefield,37.2698,-81.2223,52.0,34,90,9.22,US,2021-04-23 19:01:03
longyan,25.1072,117.0225,66.51,92,5,1.63,CN,2021-04-23 19:01:03
shakawe,-18.3667,21.85,65.91,38,1,5.48,BW,2021-04-23 19:01:03
maningrida,-12.0667,134.2667,72.43,84,13,9.62,AU,2021-04-23 19:01:04
palmer,42.1584,-72.3287,57.2,24,40,17.27,US,2021-04-23 19:01:04
ruteng,-8.6136,120.4721,60.85,90,10,1.68,ID,2021-04-23 19:01:05
bowen,-20.0167,148.2333,66.2,94,90,10.36,AU,2021-04-23 18:57:36
gobabis,-22.45,18.9667,64.11,26,0,10.04,NA,2021-04-23 19:01:05
fortuna,40.5982,-124.1573,59.0,76,1,10.36,US,2021-04-23 19:01:05
terney,45.0503,136.6092,51.85,80,100,7.11,RU,2021-04-23 19:01:06
zhigansk,66.7697,123.3711,4.05,94,32,8.01,RU,2021-04-23 19:01:06
nantucket,41.2835,-70.0995,51.8,43,1,27.63,US,2021-04-23 19:01:07
buriti bravo,-5.8372,-43.8336,81.43,81,92,3.58,BR,2021-04-23 19:01:07
adeje,28.1227,-16.726,73.4,68,40,11.5,ES,2021-04-23 18:59:49
touros,-5.1989,-35.4608,87.8,55,20,14.97,BR,2021-04-23 18:59:20
sur,22.5667,59.5289,86.77,36,0,14.52,OM,2021-04-23 19:01:08
te anau,-45.4167,167.7167,43.9,89,42,2.08,NZ,2021-04-23 18:57:55
coquimbo,-29.9533,-71.3436,64.4,63,75,6.91,CL,2021-04-23 19:00:54
munchberg,50.2,11.7833,46.4,53,0,4.61,DE,2021-04-23 19:01:08
launceston,-41.45,147.1667,48.0,87,84,11.5,AU,2021-04-23 19:01:09
stratonion,40.5141,23.8247,55.99,90,100,1.99,GR,2021-04-23 19:01:09
pelym,61.0108,61.9978,40.17,94,100,3.53,RU,2021-04-23 19:01:09
baykit,61.67,96.37,22.03,97,60,3.09,RU,2021-04-23 19:01:09
verkh-suetka,53.3,80.05,33.57,73,7,7.9,RU,2021-04-23 19:01:10
fort saint james,54.4333,-124.25,47.86,35,11,4.09,CA,2021-04-23 19:01:10
hammerfest,70.6634,23.6821,33.8,75,75,14.97,NO,2021-04-23 19:01:10
samarkand,39.6542,66.9597,62.6,39,13,9.22,UZ,2021-04-23 18:57:16
maarianhamina,60.0973,19.9348,35.6,64,0,6.91,AX,2021-04-23 18:57:20
huesca,42.1362,-0.4087,60.8,44,0,8.05,ES,2021-04-23 19:01:11
paamiut,61.994,-49.6678,34.68,73,1,3.47,GL,2021-04-23 19:01:11
constitucion,-35.3333,-72.4167,61.9,61,0,9.33,CL,2021-04-23 19:01:11
santiago del estero,-27.7951,-64.2615,68.95,90,100,4.76,AR,2021-04-23 19:01:12
la ronge,55.1001,-105.2842,30.2,40,100,12.66,CA,2021-04-23 19:01:03
iracoubo,5.4802,-53.2011,79.02,86,100,12.82,GF,2021-04-23 19:01:12
west odessa,31.8424,-102.4988,82.99,8,1,17.27,US,2021-04-23 19:01:12
jinxiang,27.4327,120.6062,64.11,95,76,6.17,CN,2021-04-23 19:01:12
pontes e lacerda,-15.2261,-59.3353,89.38,44,53,5.48,BR,2021-04-23 19:01:13
tahe,52.3333,124.7333,25.83,52,2,4.59,CN,2021-04-23 18:59:08
stornoway,58.2093,-6.3865,52.0,81,98,6.91,GB,2021-04-23 18:58:51
ulaangom,49.9811,92.0667,32.95,64,93,3.04,MN,2021-04-23 19:01:13
stepnogorsk,52.3544,71.8869,35.58,51,100,10.11,KZ,2021-04-23 19:01:14
makinsk,52.6292,70.4169,35.6,52,100,10.67,KZ,2021-04-23 19:01:14
usisha,42.2511,47.3928,51.8,76,49,11.18,RU,2021-04-23 19:01:14
huilong,31.8111,121.655,64.0,86,100,3.67,CN,2021-04-23 19:01:14
artyom,40.4723,50.333,53.6,82,0,9.22,AZ,2021-04-23 19:01:15
kholm-zhirkovskiy,55.5189,33.4731,37.63,74,98,5.23,RU,2021-04-23 19:01:15
omboue,-1.5746,9.2618,77.76,87,90,6.42,GA,2021-04-23 18:59:22
saint-pierre,-21.3393,55.4781,77.0,78,88,12.66,RE,2021-04-23 18:59:58
trelew,-43.249,-65.3051,63.23,38,6,25.21,AR,2021-04-23 18:57:39
mackay,-21.15,149.2,66.2,94,75,10.36,AU,2021-04-23 19:01:15
acari,-15.4311,-74.6158,78.12,60,32,10.65,PE,2021-04-23 19:01:16
kasungu,-13.0333,33.4833,61.86,91,3,4.81,MW,2021-04-23 19:01:16
grigiskes,54.6833,25.0833,34.0,93,75,8.05,LT,2021-04-23 19:01:16
nacala,-14.5428,40.6728,73.54,91,18,6.76,MZ,2021-04-23 19:01:17
conde,-7.2597,-34.9075,84.2,84,75,11.5,BR,2021-04-23 19:01:17
nueva loja,0.0847,-76.8828,75.2,100,75,4.61,EC,2021-04-23 19:01:17
faya,18.3851,42.4509,66.2,63,20,2.3,SA,2021-04-23 18:59:06
sturgis,41.7992,-85.4192,59.0,35,40,14.97,US,2021-04-23 19:01:18
kailua,21.4022,-157.7394,78.8,69,40,12.66,US,2021-04-23 19:01:18
eyl,7.9803,49.8164,83.55,71,97,9.93,SO,2021-04-23 19:01:18
kathmandu,27.7167,85.3167,60.8,63,20,3.44,NP,2021-04-23 18:57:32
charters towers,-20.1,146.2667,63.01,90,100,8.86,AU,2021-04-23 19:00:45
yankton,42.8711,-97.3973,60.01,44,20,13.8,US,2021-04-23 19:01:19
pinega,64.7001,43.3936,47.79,76,97,8.63,RU,2021-04-23 19:01:19
innisfail,-17.5333,146.0333,72.0,92,100,7.83,AU,2021-04-23 19:00:10
saint-ambroise,48.5501,-71.3324,54.0,29,11,21.85,CA,2021-04-23 19:01:20
carmagnola,44.847,7.718,61.0,59,3,3.44,IT,2021-04-23 19:01:20
kisangani,0.5167,25.2,71.13,98,96,0.54,CD,2021-04-23 19:01:20
ossora,59.2353,163.0719,30.45,94,100,4.38,RU,2021-04-23 19:01:20
hirara,24.8,125.2833,71.8,76,95,23.24,JP,2021-04-23 19:01:21
mehamn,71.0357,27.8492,37.4,74,20,4.61,NO,2021-04-23 18:59:45
hokitika,-42.7167,170.9667,52.93,88,22,5.44,NZ,2021-04-23 19:01:21
ascension,30.2169,-90.9001,78.01,61,75,9.22,US,2021-04-23 19:01:21
kozluk,38.1938,41.4885,57.2,54,0,6.91,TR,2021-04-23 19:01:22
zhezkazgan,47.8043,67.7144,42.51,31,86,18.88,KZ,2021-04-23 19:01:22
zelenoborskiy,66.845,32.3622,30.0,100,100,16.82,RU,2021-04-23 19:01:22
manjacaze,-24.7117,33.8828,65.75,95,100,3.49,MZ,2021-04-23 19:01:23
vestmanna,62.1564,-7.1664,44.6,100,75,6.91,FO,2021-04-23 19:01:23
gorontalo,0.5412,123.0595,74.91,92,67,2.62,ID,2021-04-23 19:01:23
ugoofaaru,5.6667,73.0,83.46,74,22,8.68,MV,2021-04-23 19:01:23
evensk,61.95,159.2333,27.77,97,100,8.08,RU,2021-04-23 19:01:24
cedar rapids,42.0083,-91.6441,51.01,71,100,4.0,US,2021-04-23 19:01:24
gouyave,12.1646,-61.7296,86.0,66,20,23.02,GD,2021-04-23 19:01:24
sarangani,5.4033,125.4636,83.39,75,48,15.52,PH,2021-04-23 19:00:13
derzhavinsk,51.1,66.3167,43.81,44,100,14.99,KZ,2021-04-23 18:58:24
goderich,43.7501,-81.7165,53.6,47,14,9.22,CA,2021-04-23 19:01:25
twentynine palms,34.1356,-116.0542,80.01,15,1,6.91,US,2021-04-23 19:01:25
bakchar,57.0186,82.0711,25.27,96,7,2.13,RU,2021-04-23 19:01:25
kulhudhuffushi,6.6221,73.07,83.03,76,2,7.29,MV,2021-04-23 19:01:25
dong hoi,17.4833,106.6,78.42,84,9,4.85,VN,2021-04-23 19:01:26
amapa,1.0,-52.0,76.8,97,100,3.13,BR,2021-04-23 18:57:02
whyalla,-33.0333,137.5833,50.0,100,75,5.75,AU,2021-04-23 19:01:26
bosaso,11.2842,49.1816,83.57,70,0,2.95,SO,2021-04-23 19:01:26
belgrade,44.804,20.4651,53.6,40,0,4.61,RS,2021-04-23 18:58:12
san-pedro,4.7485,-6.6363,82.51,80,100,8.59,CI,2021-04-23 19:01:27
balikpapan,-1.2675,116.8289,77.59,85,95,7.94,ID,2021-04-23 19:01:27
doka,13.5167,35.7667,88.48,30,100,16.2,SD,2021-04-23 19:01:27
jibuti,11.5,42.5,84.2,79,40,5.75,DJ,2021-04-23 19:01:28
merauke,-8.4667,140.3333,77.92,87,67,4.61,ID,2021-04-23 19:01:28
la asuncion,11.0333,-63.8628,87.8,58,5,23.02,VE,2021-04-23 19:01:28
kyra,49.5776,111.9753,32.88,79,100,1.45,RU,2021-04-23 19:01:28
nelson bay,-32.7167,152.15,51.01,93,100,8.05,AU,2021-04-23 19:01:29
kantunilkin,21.0917,-87.45,86.0,58,75,19.57,MX,2021-04-23 19:01:29
ishigaki,24.3448,124.1572,73.18,77,27,18.25,JP,2021-04-23 19:01:29
okhotsk,59.3833,143.3,15.76,71,1,18.41,RU,2021-04-23 19:01:30
leshukonskoye,64.8989,45.7622,44.67,79,96,6.76,RU,2021-04-23 19:01:30
palmas,-10.2128,-48.3603,87.8,58,20,5.75,BR,2021-04-23 19:01:05
debre zeyit,8.75,38.9833,71.35,44,100,12.5,ET,2021-04-23 19:01:30
skjern,55.95,8.5,44.01,77,78,1.99,DK,2021-04-23 19:01:30
qarchi gak,37.04,66.7889,71.6,12,1,5.75,AF,2021-04-23 19:01:31
miracema do tocantins,-9.5618,-48.3967,84.97,72,74,2.84,BR,2021-04-23 19:01:31
libourne,44.9167,-0.25,73.4,23,0,9.22,FR,2021-04-23 19:01:31
abalak,58.1286,68.5944,44.74,60,100,9.13,RU,2021-04-23 19:01:32
cayenne,4.9333,-52.3333,82.0,89,75,6.91,GF,2021-04-23 18:59:17
sibu,2.3,111.8167,77.0,88,40,0.6,MY,2021-04-23 19:01:32
tripoli,32.8752,13.1875,63.09,79,10,16.75,LY,2021-04-23 19:01:32
muravlenko,63.7898,74.523,35.31,92,100,13.18,RU,2021-04-23 19:01:32
linguere,15.3953,-15.1193,105.8,16,0,4.61,SN,2021-04-23 19:01:33
morondava,-20.2833,44.2833,78.48,75,0,12.39,MG,2021-04-23 19:01:33
rancharia,-22.2292,-50.8931,82.4,26,0,3.38,BR,2021-04-23 19:01:33
levashi,42.4304,47.3215,51.8,76,42,11.18,RU,2021-04-23 19:01:34
toronto,43.7001,-79.4163,64.99,38,8,13.04,CA,2021-04-23 18:54:44
gat,31.61,34.7642,69.01,100,21,6.08,IL,2021-04-23 19:01:34
beyneu,45.3167,55.2,54.25,73,53,17.4,KZ,2021-04-23 19:01:34
lavrentiya,65.5833,-171.0,28.02,73,48,1.63,RU,2021-04-23 18:58:13
palmetto,27.5214,-82.5723,84.99,51,40,10.36,US,2021-04-23 19:01:35
iqaluit,63.7506,-68.5145,30.2,80,90,4.61,CA,2021-04-23 18:57:49
korla,41.7597,86.1469,45.07,65,12,11.03,CN,2021-04-23 18:58:32
mirabad,30.4362,61.8383,77.4,10,0,10.96,AF,2021-04-23 19:01:35
trollhattan,58.2333,12.4167,44.6,42,90,9.22,SE,2021-04-23 19:01:35
campos altos,-19.6961,-46.1714,78.78,35,2,5.66,BR,2021-04-23 19:01:36
karema,-6.8205,30.4389,71.31,86,28,6.78,TZ,2021-04-23 19:01:36
marzuq,14.4,46.4667,72.01,55,4,5.97,YE,2021-04-23 19:01:36
kanniyakumari,8.0833,77.5667,82.35,80,77,13.6,IN,2021-04-23 19:01:37
nemuro,43.3236,145.575,37.31,87,100,11.48,JP,2021-04-23 18:59:56
taunggyi,20.7833,97.0333,69.33,50,4,4.29,MM,2021-04-23 19:01:37
okhtyrka,50.3104,34.8988,44.06,89,100,9.71,UA,2021-04-23 19:01:37
