City,Lat,Lng,Max Temp,Humidity,Cloudiness,Wind Speed,Country,Date
cape town,-33.9258,18.4232,75.0,56,0,12.66,ZA,2021-04-23 12:16:20
lavrentiya,65.5833,-171.0,24.53,70,100,3.58,RU,2021-04-23 12:12:15
zonguldak,41.25,31.8333,69.8,32,75,11.5,TR,2021-04-23 12:16:20
jamestown,42.097,-79.2353,36.0,80,1,10.36,US,2021-04-23 12:13:35
south venice,27.0531,-82.4243,64.99,94,1,10.36,US,2021-04-23 12:16:21
vaini,-21.2,-175.2,73.4,100,20,2.3,TO,2021-04-23 12:16:21
luwuk,-0.9516,122.7875,79.11,83,95,2.89,ID,2021-04-23 12:16:21
ushuaia,-54.8,-68.3,39.2,100,90,10.36,AR,2021-04-23 12:16:22
bluff,-46.6,168.3333,48.0,94,68,1.01,NZ,2021-04-23 12:16:22
williamsport,41.2412,-77.0011,39.0,69,1,3.44,US,2021-04-23 12:11:23
arraial do cabo,-22.9661,-42.0278,75.2,78,0,18.41,BR,2021-04-23 12:16:22
haines junction,60.7522,-137.5108,21.2,86,18,1.14,CA,2021-04-23 12:16:23
puerto ayora,-0.7393,-90.3518,75.99,96,22,1.99,EC,2021-04-23 12:16:23
olafsvik,64.8945,-23.7142,42.84,90,100,13.89,IS,2021-04-23 12:16:23
mataura,-46.1927,168.8643,48.0,94,82,1.01,NZ,2021-04-23 12:16:23
tasiilaq,65.6145,-37.6368,32.0,69,90,3.13,GL,2021-04-23 12:16:24
vardo,70.3705,31.1107,37.4,56,75,5.75,NO,2021-04-23 12:16:24
mackenzie,55.2999,-123.1698,28.4,80,90,2.28,CA,2021-04-23 12:16:24
bethel,41.3712,-73.414,41.0,45,1,6.91,US,2021-04-23 12:16:25
miles city,46.4083,-105.8406,30.2,86,90,10.36,US,2021-04-23 12:16:25
mount pleasant,32.7941,-79.8626,52.0,82,1,4.27,US,2021-04-23 12:16:25
torbay,47.6666,-52.7314,44.01,65,40,14.97,CA,2021-04-23 12:13:24
mar del plata,-38.0023,-57.5575,68.0,88,0,6.91,AR,2021-04-23 12:15:00
hilo,19.7297,-155.09,71.6,73,1,3.44,US,2021-04-23 12:11:35
butaritari,3.0707,172.7902,82.13,76,75,9.51,KI,2021-04-23 12:16:26
victoria,22.2855,114.1577,80.01,77,3,4.0,HK,2021-04-23 12:11:38
edremit,39.5961,27.0244,68.0,49,75,9.22,TR,2021-04-23 12:16:26
pitea,65.3172,21.4794,30.2,100,90,18.41,SE,2021-04-23 12:16:26
avarua,-21.2078,-159.775,78.8,78,75,14.97,CK,2021-04-23 12:16:27
east london,-33.0153,27.9116,71.6,68,0,17.27,ZA,2021-04-23 12:16:27
deputatskiy,69.3,139.9,-3.37,99,82,3.33,RU,2021-04-23 12:16:27
punta arenas,-53.15,-70.9167,46.4,93,90,1.14,CL,2021-04-23 12:16:27
alihe,50.5667,123.7167,37.27,35,73,4.52,CN,2021-04-23 12:16:28
beringovskiy,63.05,179.3167,16.86,86,100,6.42,RU,2021-04-23 12:16:28
albany,42.6001,-73.9662,39.99,42,5,5.99,US,2021-04-23 12:12:32
khasan,42.4308,130.6434,48.02,74,100,4.14,RU,2021-04-23 12:16:28
rikitea,-23.1203,-134.9692,78.06,75,64,16.06,PF,2021-04-23 12:16:29
cabo san lucas,22.8909,-109.9124,60.8,55,1,17.27,MX,2021-04-23 12:16:29
lebu,-37.6167,-73.65,50.85,76,1,3.94,CL,2021-04-23 12:16:29
rio pomba,-21.2747,-43.1792,62.6,82,0,2.3,BR,2021-04-23 12:16:30
sao joao da barra,-21.6403,-41.0511,73.4,68,0,5.75,BR,2021-04-23 12:16:30
yellowknife,62.456,-114.3525,10.4,79,90,10.36,CA,2021-04-23 12:16:30
port-gentil,-0.7193,8.7815,80.22,75,100,6.85,GA,2021-04-23 12:16:30
karasuk,53.7377,78.0403,45.73,36,51,10.22,RU,2021-04-23 12:16:31
atuona,-9.8,-139.0333,80.11,79,53,23.29,PF,2021-04-23 12:16:31
airai,-8.9266,125.4092,59.52,93,63,2.26,TL,2021-04-23 12:16:31
paramonga,-10.6667,-77.8333,65.53,91,20,6.78,PE,2021-04-23 12:16:32
aklavik,68.2191,-135.0107,12.2,67,96,8.05,CA,2021-04-23 12:16:32
geraldton,-28.7667,114.6,68.0,73,89,5.75,AU,2021-04-23 12:16:32
busselton,-33.65,115.3333,61.0,83,46,1.01,AU,2021-04-23 12:16:33
parana,-31.732,-60.5238,70.0,76,63,1.99,AR,2021-04-23 12:16:33
hobart,-42.8794,147.3294,55.4,54,75,13.8,AU,2021-04-23 12:13:08
loreto,22.2667,-101.9667,55.67,27,80,7.09,MX,2021-04-23 12:16:33
bengkulu,-3.8004,102.2655,77.49,85,83,0.58,ID,2021-04-23 12:16:33
myaundzha,63.0494,147.1858,6.94,92,100,4.27,RU,2021-04-23 12:12:15
broome,42.2506,-75.833,36.0,69,1,9.22,US,2021-04-23 12:16:34
kapaa,22.0752,-159.319,73.4,78,90,11.5,US,2021-04-23 12:11:46
bredasdorp,-34.5322,20.0403,71.6,53,6,11.5,ZA,2021-04-23 12:16:34
kirakira,-10.4544,161.9205,80.38,82,100,5.23,SB,2021-04-23 12:16:34
saint simons,31.1352,-81.3901,60.8,44,1,9.22,US,2021-04-23 12:16:35
kaitangata,-46.2817,169.8464,52.0,84,99,1.01,NZ,2021-04-23 12:16:35
cidreira,-30.1811,-50.2056,70.59,74,65,13.91,BR,2021-04-23 12:16:35
henties bay,-22.116,14.2845,69.01,78,20,10.0,NA,2021-04-23 12:16:36
longyearbyen,78.2186,15.6401,19.4,63,40,5.75,SJ,2021-04-23 12:16:36
tecoanapa,16.5167,-98.75,77.18,59,100,3.47,MX,2021-04-23 12:16:36
brae,60.3964,-1.353,48.2,66,40,4.61,GB,2021-04-23 12:16:36
port shepstone,-30.7414,30.455,68.76,74,87,11.52,ZA,2021-04-23 12:16:37
maputo,-25.9653,32.5892,71.6,78,40,9.22,MZ,2021-04-23 12:12:00
vao,-22.6667,167.4833,75.2,76,92,9.22,NC,2021-04-23 12:16:37
tiksi,71.6872,128.8694,5.58,97,56,3.96,RU,2021-04-23 12:16:37
rawson,-43.3002,-65.1023,56.3,87,64,10.49,AR,2021-04-23 12:16:38
fortuna,40.5982,-124.1573,48.0,100,90,3.0,US,2021-04-23 12:16:38
benguela,-12.5763,13.4055,87.87,65,85,10.11,AO,2021-04-23 12:16:38
kulhudhuffushi,6.6221,73.07,83.73,71,38,7.76,MV,2021-04-23 12:16:38
vila velha,-20.3297,-40.2925,75.99,78,40,3.44,BR,2021-04-23 12:16:39
hongjiang,27.11,109.9956,70.32,89,79,3.74,CN,2021-04-23 12:16:39
provideniya,64.3833,-173.3,33.13,64,100,2.93,RU,2021-04-23 12:16:39
loandjili,-4.7561,11.8578,83.7,67,100,5.48,CG,2021-04-23 12:16:40
tura,25.5198,90.2201,82.81,27,0,3.4,IN,2021-04-23 12:16:40
alofi,-19.0595,-169.9187,73.4,100,14,1.14,NU,2021-04-23 12:16:40
nanortalik,60.1432,-45.2371,36.3,85,36,9.98,GL,2021-04-23 12:16:40
thompson,55.7435,-97.8558,12.2,73,75,2.3,CA,2021-04-23 12:16:41
huarmey,-10.0681,-78.1522,66.67,88,3,8.55,PE,2021-04-23 12:16:41
makat,47.6469,53.3463,57.51,41,100,13.62,KZ,2021-04-23 12:16:41
sayyan,15.1718,44.3244,72.37,19,49,2.86,YE,2021-04-23 12:16:42
padang,-0.9492,100.3543,82.4,78,40,2.3,ID,2021-04-23 12:15:51
cardston,49.2,-113.3019,23.0,93,98,1.14,CA,2021-04-23 12:16:42
saskylakh,71.9167,114.0833,18.07,92,100,7.85,RU,2021-04-23 12:16:42
angoche,-16.2325,39.9086,80.6,67,66,9.8,MZ,2021-04-23 12:16:43
lircay,-12.9896,-74.7205,50.0,81,20,6.42,PE,2021-04-23 12:16:43
hermanus,-34.4187,19.2345,72.0,61,34,4.0,ZA,2021-04-23 12:16:43
upernavik,72.7868,-56.1549,22.55,72,91,5.21,GL,2021-04-23 12:16:43
te anau,-45.4167,167.7167,44.92,92,56,2.68,NZ,2021-04-23 12:16:44
hambantota,6.1241,81.1185,86.43,67,35,17.92,LK,2021-04-23 12:16:44
ancud,-41.8697,-73.8203,42.01,100,90,1.39,CL,2021-04-23 12:16:44
marawi,7.9986,124.2928,78.01,90,59,3.0,PH,2021-04-23 12:16:45
santa maria,-29.6842,-53.8069,59.0,100,75,2.3,BR,2021-04-23 12:16:45
ikom,5.9667,8.7063,95.92,39,82,4.38,NG,2021-04-23 12:16:45
hithadhoo,-0.6,73.0833,82.98,73,34,6.91,MV,2021-04-23 12:16:45
port alfred,-33.5906,26.891,73.99,65,1,24.81,ZA,2021-04-23 12:16:46
fort nelson,58.8053,-122.7002,26.6,50,75,9.22,CA,2021-04-23 12:15:08
samarai,-10.6167,150.6667,82.17,81,100,7.02,PG,2021-04-23 12:16:46
bonavista,48.6499,-53.1147,41.0,60,72,12.66,CA,2021-04-23 12:16:46
byron bay,-28.65,153.6167,53.01,93,0,2.64,AU,2021-04-23 12:13:09
ilulissat,69.2167,-51.1,35.6,48,1,17.27,GL,2021-04-23 12:16:47
chuy,-33.6971,-53.4616,68.43,78,98,11.01,UY,2021-04-23 12:16:47
new norfolk,-42.7826,147.0587,54.0,66,99,3.0,AU,2021-04-23 12:16:47
severo-kurilsk,50.6789,156.125,34.65,92,100,4.47,RU,2021-04-23 12:16:47
bathsheba,13.2167,-59.5167,82.4,57,20,20.71,BB,2021-04-23 12:16:48
saint-philippe,-21.3585,55.7679,79.0,83,75,18.41,RE,2021-04-23 12:16:48
pochutla,15.7432,-96.4661,78.8,61,1,2.17,MX,2021-04-23 12:16:48
kloulklubed,7.0419,134.2556,78.8,89,75,4.88,PW,2021-04-23 12:16:49
nabire,-3.3667,135.4833,78.19,88,99,1.39,ID,2021-04-23 12:16:49
bashtanka,47.4072,32.4387,59.0,67,40,15.66,UA,2021-04-23 12:16:49
palmer,42.1584,-72.3287,41.0,45,20,13.8,US,2021-04-23 12:16:50
kodiak,57.79,-152.4072,41.0,87,90,8.05,US,2021-04-23 12:16:50
lorengau,-2.0226,147.2712,79.93,80,97,4.76,PG,2021-04-23 12:16:50
flinders,-34.5833,150.8552,55.99,73,3,1.01,AU,2021-04-23 12:16:50
dikson,73.5069,80.5464,32.02,98,100,20.07,RU,2021-04-23 12:16:51
autazes,-3.5797,-59.1306,76.95,94,100,2.98,BR,2021-04-23 12:16:51
ribeira grande,38.5167,-28.7,60.8,72,40,25.32,PT,2021-04-23 12:16:51
magaria,12.9983,8.9099,105.89,5,29,2.73,NE,2021-04-23 12:16:51
sao filipe,14.8961,-24.4956,72.73,71,46,8.01,CV,2021-04-23 12:16:52
kavieng,-2.5744,150.7967,77.41,90,100,9.69,PG,2021-04-23 12:16:52
chokurdakh,70.6333,147.9167,-9.13,99,29,4.54,RU,2021-04-23 12:16:52
ponta pora,-22.5361,-55.7256,69.6,43,3,13.56,BR,2021-04-23 12:16:53
sungairaya,0.7,108.9,81.34,74,38,6.29,ID,2021-04-23 12:16:53
minatitlan,17.9833,-94.5167,80.6,96,40,4.05,MX,2021-04-23 12:16:53
port keats,-14.25,129.55,84.06,61,92,2.95,AU,2021-04-23 12:16:54
pekalongan,-6.8886,109.6753,80.28,77,23,3.78,ID,2021-04-23 12:16:54
isangel,-19.55,169.2667,78.51,87,28,8.95,VU,2021-04-23 12:16:54
shubarshi,48.5872,57.1869,58.32,40,100,21.09,KZ,2021-04-23 12:16:54
khalimbekaul,42.846,47.1387,68.0,49,20,20.13,RU,2021-04-23 12:16:55
ponta do sol,32.6667,-17.1,69.8,60,40,9.22,PT,2021-04-23 12:16:55
zhuanghe,39.7008,122.9911,53.47,83,100,6.26,CN,2021-04-23 12:16:55
husavik,66.0449,-17.3389,50.0,62,0,3.44,IS,2021-04-23 12:16:56
khatanga,71.9667,102.5,33.67,95,100,17.6,RU,2021-04-23 12:16:56
sambava,-14.2667,50.1667,79.47,80,96,6.51,MG,2021-04-23 12:16:56
kruisfontein,-34.0033,24.7314,82.99,46,2,8.99,ZA,2021-04-23 12:16:56
altus,34.6381,-99.334,53.6,87,90,12.66,US,2021-04-23 12:14:55
clyde river,70.4692,-68.5914,14.0,85,75,8.05,CA,2021-04-23 12:16:57
willmar,45.1219,-95.0433,44.6,81,1,8.05,US,2021-04-23 12:16:57
kano,12.0001,8.5167,100.4,27,0,6.91,NG,2021-04-23 12:15:00
hofn,64.2539,-15.2082,41.0,81,90,1.48,IS,2021-04-23 12:16:57
bowen,-20.0167,148.2333,66.2,100,90,11.5,AU,2021-04-23 12:16:58
fallon,39.4735,-118.7774,48.99,42,1,6.91,US,2021-04-23 12:16:58
tanda,26.55,82.65,99.19,12,0,12.57,IN,2021-04-23 12:16:58
nalut,30.3333,10.85,96.12,8,31,14.34,LY,2021-04-23 12:16:58
cotonou,6.3654,2.4183,87.8,79,40,16.11,BJ,2021-04-23 12:15:09
nuevo progreso,23.1667,-97.95,75.0,78,64,1.01,MX,2021-04-23 12:16:59
naze,28.3667,129.4833,65.88,76,100,27.22,JP,2021-04-23 12:16:59
chapais,49.7834,-74.8492,26.6,63,1,13.8,CA,2021-04-23 12:16:59
mackay,-21.15,149.2,66.2,94,75,12.66,AU,2021-04-23 12:15:36
kem,64.9555,34.5793,37.6,81,100,16.58,RU,2021-04-23 12:17:00
iqaluit,63.7506,-68.5145,24.8,93,90,3.44,CA,2021-04-23 12:17:00
davila,18.4726,120.5763,78.8,83,40,5.75,PH,2021-04-23 12:17:00
san patricio,28.017,-97.5169,72.0,100,90,11.5,US,2021-04-23 12:17:01
matara,5.9485,80.5353,83.32,73,32,11.77,LK,2021-04-23 12:17:01
juegang,32.3174,121.1855,56.03,96,80,8.93,CN,2021-04-23 12:17:01
nerja,36.7585,-3.8873,66.99,66,100,10.0,ES,2021-04-23 12:17:01
faanui,-16.4833,-151.75,80.06,76,26,13.15,PF,2021-04-23 12:17:02
copiapo,-27.3667,-70.3333,59.0,77,90,1.81,CL,2021-04-23 12:17:02
pevek,69.7008,170.3133,10.15,97,81,7.96,RU,2021-04-23 12:17:02
kendari,-3.945,122.4989,76.46,91,59,3.51,ID,2021-04-23 12:17:03
wanning,18.8003,110.3967,79.05,82,20,8.25,CN,2021-04-23 12:17:03
coihaique,-45.5752,-72.0662,42.8,93,75,5.75,CL,2021-04-23 12:17:03
gambiran,-6.7988,111.4951,77.07,76,82,2.53,ID,2021-04-23 12:17:04
yuci,37.6803,112.7319,62.6,48,0,17.9,CN,2021-04-23 12:17:04
colesberg,-30.72,25.0972,77.29,17,5,15.21,ZA,2021-04-23 12:17:04
goderich,43.7501,-81.7165,41.0,65,1,9.22,CA,2021-04-23 12:17:04
korla,41.7597,86.1469,49.96,48,68,10.71,CN,2021-04-23 12:17:05
kermanshah,34.3142,47.065,84.2,13,75,9.22,IR,2021-04-23 12:13:10
turukhansk,65.8167,87.9833,34.09,90,100,13.96,RU,2021-04-23 12:17:05
lagoa,39.05,-27.9833,57.13,79,16,36.35,PT,2021-04-23 12:17:05
akdagmadeni,39.6603,35.8836,63.75,20,18,9.51,TR,2021-04-23 12:17:05
viedma,-40.8135,-62.9967,59.59,67,50,5.44,AR,2021-04-23 12:17:06
hochstadt,49.2475,8.2089,60.01,29,3,1.01,DE,2021-04-23 12:17:06
margate,51.3813,1.3862,53.01,49,5,3.0,GB,2021-04-23 12:14:43
rochegda,62.8,43.25,59.31,47,25,10.11,RU,2021-04-23 12:17:06
invermere,50.5167,-116.0354,33.01,87,100,1.01,CA,2021-04-23 12:15:08
fort frances,48.5999,-93.4003,42.8,75,1,6.91,CA,2021-04-23 12:17:07
saint george,37.1041,-113.5841,55.0,37,1,5.75,US,2021-04-23 12:12:36
barrow,71.2906,-156.7887,8.6,85,1,4.61,US,2021-04-23 12:16:16
bambous virieux,-20.3428,57.7575,81.0,78,75,10.36,MU,2021-04-23 12:17:07
rudnichnyy,59.617,52.4703,49.42,64,95,4.83,RU,2021-04-23 12:17:07
xingcheng,40.6167,120.7167,50.77,95,100,8.28,CN,2021-04-23 12:17:08
lompoc,34.6391,-120.4579,50.0,81,100,4.61,US,2021-04-23 12:17:08
manicore,-5.8092,-61.3003,77.0,94,75,1.41,BR,2021-04-23 12:17:09
novopavlovka,51.2172,109.2091,33.48,65,100,4.76,RU,2021-04-23 12:12:11
lomovka,53.9194,58.3672,53.6,37,75,13.42,RU,2021-04-23 12:17:09
solnechnyy,50.7214,136.6319,38.41,93,97,11.05,RU,2021-04-23 12:17:09
ikalamavony,-21.15,46.5833,81.19,42,9,3.44,MG,2021-04-23 12:17:09
shingu,33.7333,135.9833,59.22,73,100,5.46,JP,2021-04-23 12:17:10
narsaq,60.9167,-46.05,42.8,56,40,1.14,GL,2021-04-23 12:17:10
mahebourg,-20.4081,57.7,80.6,78,75,10.36,MU,2021-04-23 12:16:50
jiaojiang,28.6803,121.4428,72.0,68,63,5.7,CN,2021-04-23 12:17:10
castro,-24.7911,-50.0119,57.38,80,27,3.11,BR,2021-04-23 12:17:11
laguna,38.421,-121.4238,51.01,87,1,5.75,US,2021-04-23 12:17:11
heze,35.2431,115.4411,60.49,69,87,13.02,CN,2021-04-23 12:17:11
madimba,-10.4,40.3333,80.85,81,83,14.14,TZ,2021-04-23 12:17:12
aksu,41.1231,80.2644,62.08,13,1,4.88,CN,2021-04-23 12:17:12
madras,13.0878,80.2785,87.8,62,20,11.5,IN,2021-04-23 12:14:53
togur,58.3631,82.8265,37.65,76,5,1.59,RU,2021-04-23 12:17:12
lata,40.1629,-8.3327,69.01,60,40,17.27,PT,2021-04-23 12:17:13
emirdag,39.0197,31.15,70.36,22,56,13.71,TR,2021-04-23 12:17:13
great falls,47.5002,-111.3008,25.0,86,90,9.22,US,2021-04-23 12:14:22
auki,-8.7676,160.7034,77.02,87,59,3.89,SB,2021-04-23 12:17:13
porto torres,40.835,8.3972,69.8,56,20,13.8,IT,2021-04-23 12:17:13
severnyy,50.677,36.5532,59.0,51,40,11.18,RU,2021-04-23 12:17:14
ucluelet,48.9329,-125.5528,50.0,85,100,1.01,CA,2021-04-23 12:15:08
hay river,60.8156,-115.7999,15.8,67,97,4.61,CA,2021-04-23 12:15:08
haifa,32.8156,34.9892,72.0,68,0,14.97,IL,2021-04-23 12:14:35
muros,42.7762,-9.0603,62.01,77,100,16.71,ES,2021-04-23 12:17:14
georgetown,5.4112,100.3354,86.0,89,40,1.14,MY,2021-04-23 12:15:58
qaanaaq,77.484,-69.3632,21.04,92,100,7.54,GL,2021-04-23 12:17:15
poum,-20.2333,164.0167,78.94,80,92,8.99,NC,2021-04-23 12:17:15
nishihara,26.1842,127.7558,68.0,88,90,20.71,JP,2021-04-23 12:17:15
kalmunai,7.4167,81.8167,84.56,71,16,10.02,LK,2021-04-23 12:17:15
abu samrah,35.3029,37.1841,80.17,18,0,4.97,SY,2021-04-23 12:17:16
constitucion,-35.3333,-72.4167,53.02,84,45,2.93,CL,2021-04-23 12:17:16
ozernovskiy,51.5,156.5167,34.18,96,100,2.93,RU,2021-04-23 12:17:16
carnarvon,-24.8667,113.6333,71.6,88,65,8.05,AU,2021-04-23 12:17:17
patos,-7.0244,-37.28,80.6,64,47,6.15,BR,2021-04-23 12:17:17
nikolskoye,59.7035,30.7861,50.0,49,75,15.66,RU,2021-04-23 12:17:17
katsuura,35.1333,140.3,55.4,67,20,11.5,JP,2021-04-23 12:17:01
landeck,47.1301,10.5636,57.99,26,0,6.91,AT,2021-04-23 12:17:18
punta gorda,26.9298,-82.0454,66.99,94,1,5.75,US,2021-04-23 12:17:18
araouane,18.9048,-3.5265,102.25,7,47,7.74,ML,2021-04-23 12:17:18
ulaanbaatar,47.9077,106.8832,48.2,23,40,4.47,MN,2021-04-23 12:17:18
constantine,36.365,6.6147,59.0,72,75,10.36,DZ,2021-04-23 12:17:19
srikakulam,18.3,83.9,84.16,71,67,16.6,IN,2021-04-23 12:17:19
coquimbo,-29.9533,-71.3436,59.0,82,90,4.61,CL,2021-04-23 12:17:19
bismarck,46.8083,-100.7837,30.2,80,90,16.11,US,2021-04-23 12:17:20
khovu-aksy,51.1333,93.6,29.23,75,100,4.23,RU,2021-04-23 12:17:20
iralaya,15.0,-83.2333,78.01,79,27,11.3,HN,2021-04-23 12:17:20
praia da vitoria,38.7333,-27.0667,62.6,67,75,33.51,PT,2021-04-23 12:17:20
portland,45.5234,-122.6762,46.0,75,87,1.01,US,2021-04-23 12:10:19
vanavara,60.34,102.2797,33.37,88,100,3.89,RU,2021-04-23 12:17:21
eydhafushi,5.1033,73.0708,83.26,73,56,11.14,MV,2021-04-23 12:17:21
meulaboh,4.1363,96.1285,79.79,80,97,3.58,ID,2021-04-23 12:17:21
pingliang,35.5392,106.6861,45.0,31,100,3.0,CN,2021-04-23 12:17:22
tuktoyaktuk,69.4541,-133.0374,-4.86,100,78,5.82,CA,2021-04-23 12:17:22
kasongo,-4.45,26.6667,87.57,51,49,2.68,CD,2021-04-23 12:17:22
batagay-alyta,67.8006,130.4114,4.84,87,100,2.59,RU,2021-04-23 12:17:23
gao,16.6362,1.637,105.19,4,16,10.87,ML,2021-04-23 12:17:23
sibolga,1.7427,98.7792,78.26,85,100,1.63,ID,2021-04-23 12:17:23
san quintin,30.4833,-115.95,57.4,81,83,14.88,MX,2021-04-23 12:17:23
haimen,23.1935,116.6142,77.0,73,40,11.18,CN,2021-04-23 12:17:24
esperance,-33.8667,121.9,59.0,88,100,9.22,AU,2021-04-23 12:17:24
champerico,14.3,-91.9167,73.4,94,0,2.98,GT,2021-04-23 12:17:24
alta floresta,-9.8756,-56.0861,73.92,92,39,1.86,BR,2021-04-23 12:17:25
atambua,-9.1061,124.8925,73.24,87,9,4.63,ID,2021-04-23 12:17:25
mayo,38.8876,-76.5119,46.0,57,1,3.44,US,2021-04-23 12:17:25
ust-nera,64.5667,143.2,1.04,92,87,0.67,RU,2021-04-23 12:17:25
kathmandu,27.7167,85.3167,77.0,31,20,6.91,NP,2021-04-23 12:14:12
alekseyevskoye,55.3071,50.1135,59.0,51,0,8.95,RU,2021-04-23 12:17:26
hasaki,35.7333,140.8333,48.2,81,0,3.44,JP,2021-04-23 12:17:26
soledade,-28.8183,-52.5103,62.6,55,94,8.41,BR,2021-04-23 12:17:26
samfya,-11.3649,29.5565,79.07,48,5,5.17,ZM,2021-04-23 12:17:27
manga,11.6636,-1.0731,101.21,23,16,4.27,BF,2021-04-23 12:17:28
grindavik,63.8424,-22.4338,44.6,93,90,25.32,IS,2021-04-23 12:17:28
rosetta,31.4044,30.4164,73.4,46,40,11.5,EG,2021-04-23 12:17:28
hervey bay,-25.2986,152.8535,63.0,67,0,8.05,AU,2021-04-23 12:17:28
waitati,-45.75,170.5667,54.0,80,85,1.01,NZ,2021-04-23 12:17:29
batagay,67.6333,134.6333,5.59,91,97,2.04,RU,2021-04-23 12:17:29
port elizabeth,-33.918,25.5701,71.6,73,0,25.32,ZA,2021-04-23 12:17:29
namibe,-15.1961,12.1522,89.6,62,20,20.71,AO,2021-04-23 12:17:29
qasigiannguit,68.8193,-51.1922,35.6,48,1,17.27,GL,2021-04-23 12:17:30
puerto escondido,15.85,-97.0667,77.0,88,40,3.44,MX,2021-04-23 12:17:30
novo aripuana,-5.1206,-60.3797,76.59,92,100,1.45,BR,2021-04-23 12:17:30
keflavik,64.0049,-22.5624,48.2,93,90,25.32,IS,2021-04-23 12:17:31
marsaxlokk,35.8419,14.5431,64.4,77,0,18.41,MT,2021-04-23 12:15:46
balapur,20.6667,76.7667,101.16,11,84,7.09,IN,2021-04-23 12:17:31
pangai,-19.8,-174.35,80.6,65,20,3.44,TO,2021-04-23 12:17:31
anaconda,46.1285,-112.9423,24.8,86,90,6.91,US,2021-04-23 12:17:31
svetlogorsk,52.6333,29.7333,48.2,49,97,13.24,BY,2021-04-23 12:17:32
tautira,-17.7333,-149.15,77.0,78,20,2.3,PF,2021-04-23 12:17:32
cayenne,4.9333,-52.3333,84.2,74,40,13.8,GF,2021-04-23 12:17:32
beyneu,45.3167,55.2,63.73,40,100,20.09,KZ,2021-04-23 12:17:33
port macquarie,-31.4333,152.9167,53.01,93,0,1.01,AU,2021-04-23 12:17:33
ponta delgada,37.7333,-25.6667,60.8,72,20,28.77,PT,2021-04-23 12:17:33
kavaratti,10.5669,72.642,84.52,67,5,5.48,IN,2021-04-23 12:17:33
villamontes,-21.25,-63.5,69.8,94,90,2.26,BO,2021-04-23 12:17:34
labuhan,-6.8844,112.2051,80.53,73,28,4.18,ID,2021-04-23 12:17:34
daura,11.5538,11.4085,102.33,15,88,8.95,NG,2021-04-23 12:17:34
tiarei,-17.5333,-149.3333,77.0,78,20,2.3,PF,2021-04-23 12:17:35
corner brook,48.9667,-57.9484,37.4,70,90,17.27,CA,2021-04-23 12:17:35
kutahya,39.4242,29.9833,69.8,30,40,4.61,TR,2021-04-23 12:17:35
west bay,19.3667,-81.4167,81.0,83,20,7.9,KY,2021-04-23 12:17:35
grand-lahou,5.1367,-5.0242,87.67,64,100,6.22,CI,2021-04-23 12:17:36
alice springs,-23.7,133.8833,57.2,54,0,6.91,AU,2021-04-23 12:17:36
ketchikan,55.3422,-131.6461,39.2,75,1,4.0,US,2021-04-23 12:17:36
kuryk,43.2,51.65,60.51,62,4,26.51,KZ,2021-04-23 12:17:37
yar-sale,66.8333,70.8333,35.51,99,99,13.22,RU,2021-04-23 12:17:37
launceston,-41.45,147.1667,48.99,87,63,12.66,AU,2021-04-23 12:17:37
mao,39.8885,4.2658,64.4,59,20,12.66,ES,2021-04-23 12:17:37
baruun-urt,46.6806,113.2792,48.04,35,68,18.7,MN,2021-04-23 12:17:38
tutoia,-2.7619,-42.2744,79.07,86,99,5.14,BR,2021-04-23 12:17:38
opuwo,-18.0607,13.84,86.34,21,2,10.98,NA,2021-04-23 12:17:38
tateyama,34.9833,139.8667,59.0,77,16,8.95,JP,2021-04-23 12:17:39
san rafael,-34.6177,-68.3301,57.56,70,36,3.31,AR,2021-04-23 12:17:39
mazatlan,23.2167,-106.4167,69.01,88,75,3.44,MX,2021-04-23 12:13:22
raudeberg,61.9875,5.1352,43.0,74,99,14.09,NO,2021-04-23 12:17:39
lodja,-3.4833,23.4333,90.7,44,92,3.02,CD,2021-04-23 12:17:39
chiang mai,18.75,99.0,91.4,52,20,5.75,TH,2021-04-23 12:17:40
komsomolskiy,40.4272,71.7189,71.6,14,4,4.61,UZ,2021-04-23 12:17:40
smithers,54.7804,-127.1743,24.8,93,1,2.3,CA,2021-04-23 12:17:40
asau,46.4333,26.4,39.99,64,100,3.89,RO,2021-04-23 12:17:41
souillac,-20.5167,57.5167,80.6,78,75,10.36,MU,2021-04-23 12:17:41
nhulunbuy,-12.2333,136.7667,82.4,69,40,13.8,AU,2021-04-23 12:17:41
daru,-9.0763,143.2092,80.38,79,80,4.65,PG,2021-04-23 12:17:41
la palma,33.8464,-118.0467,57.99,82,90,4.27,US,2021-04-23 12:17:42
santa cruz de tenerife,28.4682,-16.2546,71.01,60,40,9.22,ES,2021-04-23 12:17:42
katihar,25.5333,87.5833,99.14,10,37,11.3,IN,2021-04-23 12:17:14
northam,51.0333,-4.2167,54.0,19,45,1.99,GB,2021-04-23 12:17:42
linxia,35.6003,103.2064,57.38,77,100,2.59,CN,2021-04-23 12:17:43
sanbu,33.4594,119.1453,59.68,84,99,8.9,CN,2021-04-23 12:17:43
shakawe,-18.3667,21.85,87.93,18,0,3.76,BW,2021-04-23 12:17:43
haapiti,-17.5667,-149.8667,77.0,78,20,2.3,PF,2021-04-23 12:17:44
tubuala,9.5167,-79.0333,75.2,88,20,11.36,PA,2021-04-23 12:17:44
dunedin,-45.8742,170.5036,54.0,80,91,1.01,NZ,2021-04-23 12:17:44
talnakh,69.4865,88.3972,34.09,90,86,13.13,RU,2021-04-23 12:17:44
aranda de duero,41.6704,-3.6892,63.0,47,97,10.6,ES,2021-04-23 12:17:45
seoul,37.5683,126.9778,66.2,42,0,9.22,KR,2021-04-23 12:13:04
kahului,20.8947,-156.47,71.6,88,1,12.66,US,2021-04-23 12:17:45
lashio,22.9333,97.75,84.88,29,38,3.18,MM,2021-04-23 12:15:06
nicoya,10.1483,-85.452,71.6,83,0,3.44,CR,2021-04-23 12:17:45
koungou,-12.7336,45.2042,84.2,74,0,3.44,YT,2021-04-23 12:17:46
tessalit,20.1986,1.0114,100.29,5,0,8.48,ML,2021-04-23 12:17:46
puerto quijarro,-17.7833,-57.7667,80.1,44,14,3.11,BO,2021-04-23 12:17:46
russell,32.3502,-85.1999,48.2,87,90,3.53,US,2021-04-23 12:15:08
bani,18.2833,-70.3333,79.0,94,40,5.93,DO,2021-04-23 12:15:33
peruibe,-24.32,-46.9983,69.58,78,38,7.2,BR,2021-04-23 12:17:47
dingle,10.9995,122.6711,79.93,72,94,8.16,PH,2021-04-23 12:17:47
la fria,8.2203,-72.2439,77.0,94,40,2.3,VE,2021-04-23 12:17:47
severo-yeniseyskiy,60.3725,93.0408,33.13,87,32,1.54,RU,2021-04-23 12:17:47
yumen,40.2833,97.2,43.16,61,100,26.69,CN,2021-04-23 12:17:48
ponoka,52.6768,-113.5815,21.2,73,31,6.91,CA,2021-04-23 12:17:48
jacareacanga,-6.2222,-57.7528,77.0,94,75,3.44,BR,2021-04-23 12:17:48
vangaindrano,-23.35,47.6,76.3,76,35,5.57,MG,2021-04-23 12:17:49
znamenka,52.4167,41.4311,60.01,52,93,11.9,RU,2021-04-23 12:17:49
garmsar,35.2182,52.3409,92.37,10,85,6.24,IR,2021-04-23 12:17:49
urumqi,43.801,87.6005,41.0,52,75,8.95,CN,2021-04-23 12:17:49
general roca,-39.0333,-67.5833,50.0,93,0,5.75,AR,2021-04-23 12:17:50
luderitz,-26.6481,15.1594,75.99,54,6,13.85,NA,2021-04-23 12:17:50
kampot,10.6167,104.1833,77.0,88,75,13.8,KH,2021-04-23 12:17:50
aykhal,66.0,111.5,28.4,90,100,20.4,RU,2021-04-23 12:17:50
oromocto,45.8351,-66.4792,33.8,64,90,18.41,CA,2021-04-23 12:17:51
kansk,56.2017,95.7175,38.53,64,13,10.22,RU,2021-04-23 12:17:51
beira,-19.8436,34.8389,80.6,61,20,7.4,MZ,2021-04-23 12:17:51
nantucket,41.2835,-70.0995,42.8,52,1,23.02,US,2021-04-23 12:14:18
slantsy,59.1182,28.0914,41.81,70,100,11.25,RU,2021-04-23 12:17:52
havoysund,70.9963,24.6622,39.2,60,20,5.75,NO,2021-04-23 12:17:52
kudymkar,59.0173,54.656,49.03,67,93,7.38,RU,2021-04-23 12:17:52
kutum,14.2,24.6667,93.43,11,67,6.33,SD,2021-04-23 12:17:52
powell river,49.8496,-124.5361,46.4,71,75,2.3,CA,2021-04-23 12:15:08
anzio,41.4853,12.6179,69.01,56,70,7.0,IT,2021-04-23 12:17:53
ballina,-28.8667,153.5667,53.01,93,0,2.26,AU,2021-04-23 12:17:53
leningradskiy,69.3833,178.4167,15.15,92,83,6.22,RU,2021-04-23 12:17:53
nuqui,5.7125,-77.2708,77.36,89,81,5.17,CO,2021-04-23 12:17:54
lamongan,-7.1167,112.4167,84.2,61,40,10.36,ID,2021-04-23 12:17:54
gladstone,-23.85,151.25,69.8,73,96,1.14,AU,2021-04-23 12:15:10
hammerfest,70.6634,23.6821,33.8,93,75,19.57,NO,2021-04-23 12:13:11
saint-francois,46.4154,3.9054,69.01,37,0,10.36,FR,2021-04-23 12:17:54
namatanai,-3.6667,152.4333,75.9,92,100,1.48,PG,2021-04-23 12:17:55
dzaoudzi,-12.7887,45.2699,84.2,74,0,3.44,YT,2021-04-23 12:17:55
vicuna,-30.0319,-70.7081,59.0,82,90,4.61,CL,2021-04-23 12:17:55
karpogory,64.0019,44.4451,57.0,45,73,6.26,RU,2021-04-23 12:17:55
salinas,36.6777,-121.6555,51.8,76,90,5.75,US,2021-04-23 12:15:09
varadero,23.1536,-81.2514,71.6,100,20,4.61,CU,2021-04-23 12:17:56
evensk,61.95,159.2333,28.51,98,100,3.83,RU,2021-04-23 12:17:56
berlevag,70.8578,29.0864,39.2,60,40,4.61,NO,2021-04-23 12:17:56
rocha,-34.4833,-54.3333,65.39,86,73,10.4,UY,2021-04-23 12:17:57
karratha,-20.7377,116.8463,80.87,49,5,4.9,AU,2021-04-23 12:17:57
vanimo,-2.6741,141.3028,79.3,86,88,3.56,PG,2021-04-23 12:17:57
shibetsu,43.659,145.132,35.55,90,4,3.09,JP,2021-04-23 12:17:57
verkhnevilyuysk,63.4453,120.3167,23.58,84,96,8.39,RU,2021-04-23 12:17:58
san cristobal,7.7669,-72.225,77.0,94,40,2.3,VE,2021-04-23 12:17:58
wuchang,44.9143,127.15,54.0,86,100,3.53,CN,2021-04-23 12:17:58
lebedyn,50.5852,34.4849,54.63,77,93,12.88,UA,2021-04-23 12:17:59
masalli,34.7959,126.6553,64.4,48,0,3.44,KR,2021-04-23 12:17:59
half moon bay,37.4636,-122.4286,51.01,87,90,5.75,US,2021-04-23 12:13:48
koroni,36.8,21.95,69.8,37,75,9.22,GR,2021-04-23 12:17:59
sribne,50.6638,32.9187,42.46,88,100,7.52,UA,2021-04-23 12:17:59
petatlan,17.5167,-101.2667,64.4,88,40,3.42,MX,2021-04-23 12:18:00
vila franca do campo,37.7167,-25.4333,60.8,72,20,28.77,PT,2021-04-23 12:18:00
am timan,11.0297,20.2827,103.66,18,44,8.61,TD,2021-04-23 12:18:00
nakamura,32.9833,132.9333,59.95,93,100,6.2,JP,2021-04-23 12:18:01
iwaki,37.05,140.8833,45.0,77,0,1.01,JP,2021-04-23 12:18:01
boiro,42.65,-8.9,62.01,77,100,14.41,ES,2021-04-23 12:18:01
norman wells,65.282,-126.8329,6.8,85,20,3.44,CA,2021-04-23 12:18:02
veliko gradiste,44.7567,21.5136,61.0,43,35,5.01,RS,2021-04-23 12:18:02
lagos,6.5833,3.75,91.4,66,75,8.05,NG,2021-04-23 12:15:11
alyangula,-13.8483,136.4192,75.2,83,60,12.3,AU,2021-04-23 12:18:02
simpang,-1.2667,104.0833,76.17,94,49,1.72,ID,2021-04-23 12:18:02
ottawa,45.4112,-75.6981,41.0,56,75,14.97,CA,2021-04-23 12:15:56
amapa,1.0,-52.0,74.44,97,100,0.49,BR,2021-04-23 12:18:03
taoudenni,22.6783,-3.9836,101.05,5,0,2.33,ML,2021-04-23 12:18:03
chimoio,-19.1164,33.4833,75.2,60,75,6.91,MZ,2021-04-23 12:17:55
salinopolis,-0.6136,-47.3561,79.34,86,64,6.4,BR,2021-04-23 12:18:03
male,4.1748,73.5089,83.32,74,35,12.39,MV,2021-04-23 12:18:04
troitsko-pechorsk,62.7084,56.1964,45.37,76,100,7.61,RU,2021-04-23 12:18:04
novyy urengoy,66.0833,76.6333,34.11,99,98,18.28,RU,2021-04-23 12:18:04
escanaba,45.7453,-87.0646,39.0,93,40,5.48,US,2021-04-23 12:18:04
camopi,3.1655,-52.3158,75.79,95,81,2.71,GF,2021-04-23 12:18:05
nouadhibou,20.931,-17.0347,71.6,68,0,19.57,MR,2021-04-23 12:18:05
qingdao,36.0986,120.3719,55.4,94,90,8.95,CN,2021-04-23 12:18:05
siocon,7.7061,122.1353,80.17,80,69,4.5,PH,2021-04-23 12:18:06
komsomolets,53.7453,62.0708,57.06,40,100,10.4,KZ,2021-04-23 12:18:06
kiama,-34.6833,150.8667,55.99,64,2,1.99,AU,2021-04-23 12:18:06
purranque,-40.9167,-73.1667,50.0,94,90,0.49,CL,2021-04-23 12:18:07
santa marinella,42.0345,11.8536,63.0,64,18,4.72,IT,2021-04-23 12:18:07
kovdor,67.5662,30.4758,35.67,80,100,10.31,RU,2021-04-23 12:18:07
quang ngai,15.1167,108.8,78.69,88,68,7.56,VN,2021-04-23 12:16:52
mariental,-24.6333,17.9667,82.44,16,4,8.52,NA,2021-04-23 12:18:07
kashi,39.4547,75.9797,69.8,3,0,17.9,CN,2021-04-23 12:16:02
cururupu,-1.8283,-44.8683,80.2,86,91,3.02,BR,2021-04-23 12:18:08
corinto,37.9407,22.9573,64.99,54,97,5.99,GR,2021-04-23 12:18:08
inongo,-1.95,18.2667,79.25,76,96,4.34,CD,2021-04-23 12:18:08
grants pass,42.439,-123.3284,42.8,65,1,0.94,US,2021-04-23 12:18:09
miri,4.4148,114.0089,84.2,74,20,4.61,MY,2021-04-23 12:18:09
ranong,9.9658,98.6348,86.0,74,20,6.91,TH,2021-04-23 12:14:11
at-bashi,41.1702,75.8106,46.89,27,2,9.22,KG,2021-04-23 12:18:09
saint-pierre,-21.3393,55.4781,79.0,83,75,18.41,RE,2021-04-23 12:18:10
victor harbor,-35.5667,138.6167,55.99,91,98,5.73,AU,2021-04-23 12:18:10
ardakan,32.31,54.0175,93.2,11,40,11.5,IR,2021-04-23 12:18:10
flin flon,54.7682,-101.865,12.2,85,40,2.3,CA,2021-04-23 12:18:10
pedreiras,-4.5688,-44.6003,79.75,85,91,2.55,BR,2021-04-23 12:18:11
cockburn town,21.4612,-71.1419,78.94,67,69,15.1,TC,2021-04-23 12:14:16
saldanha,-33.0117,17.9442,73.4,70,0,9.22,ZA,2021-04-23 12:18:11
port lincoln,-34.7333,135.8667,59.61,65,100,5.35,AU,2021-04-23 12:18:11
gunjur,13.2019,-16.7339,89.6,43,0,11.5,GM,2021-04-23 12:18:11
vizinga,61.0749,50.1031,55.06,54,80,8.39,RU,2021-04-23 12:18:12
mount isa,-20.7333,139.5,73.4,23,3,12.66,AU,2021-04-23 12:18:12
funadhoo,6.15,73.2667,83.41,71,52,8.93,MV,2021-04-23 12:18:12
mandiana,10.6333,-8.6833,85.95,46,100,7.31,GN,2021-04-23 12:18:13
bubaque,11.2833,-15.8333,78.71,58,68,6.35,GW,2021-04-23 12:18:13
zhangye,38.9342,100.4517,51.35,40,100,17.09,CN,2021-04-23 12:18:13
fare,-16.7,-151.0167,79.7,76,14,12.26,PF,2021-04-23 12:18:13
adre,13.4667,22.2,100.89,9,41,8.77,TD,2021-04-23 12:18:14
hjelset,62.7833,7.4833,41.0,65,75,12.66,NO,2021-04-23 12:18:14
tulsipur,28.131,82.2973,86.58,19,2,12.57,NP,2021-04-23 12:18:14
huangcun,30.0145,118.4037,62.76,90,100,5.06,CN,2021-04-23 12:18:15
bhatgaon,21.15,81.7,100.69,9,23,8.23,IN,2021-04-23 12:18:15
klaksvik,62.2266,-6.589,46.4,87,75,4.61,FO,2021-04-23 12:18:15
sobolevo,54.4299,31.8996,48.61,45,100,13.6,RU,2021-04-23 12:18:15
schwerin,53.6294,11.4132,55.4,33,0,10.36,DE,2021-04-23 12:16:35
black river,18.0264,-77.8487,80.6,74,20,2.3,JM,2021-04-23 12:18:16
yulara,-25.2406,130.9889,64.4,39,1,5.75,AU,2021-04-23 12:18:16
torrington,41.8007,-73.1212,39.0,66,2,1.99,US,2021-04-23 12:18:16
presidencia roque saenz pena,-26.7852,-60.4388,70.0,86,58,1.99,AR,2021-04-23 12:18:17
kerema,-7.9631,145.7785,80.37,83,99,5.17,PG,2021-04-23 12:18:17
sitka,57.0531,-135.33,37.4,75,40,5.32,US,2021-04-23 12:18:17
kikwit,-5.041,18.8162,91.71,45,64,2.66,CD,2021-04-23 12:18:17
kidal,18.4411,1.4078,103.41,4,0,19.06,ML,2021-04-23 12:18:18
bonoua,5.2741,-3.595,87.8,74,40,11.5,CI,2021-04-23 12:18:18
khani,41.9563,42.9566,69.8,32,0,4.61,GE,2021-04-23 12:18:18
aljezur,37.3191,-8.8033,69.57,63,80,19.51,PT,2021-04-23 12:18:19
locri,38.2414,16.2623,62.6,77,90,8.05,IT,2021-04-23 12:18:19
diamantino,-14.4086,-56.4461,76.33,68,83,7.38,BR,2021-04-23 12:18:19
harper,4.375,-7.7169,86.38,68,98,9.44,LR,2021-04-23 12:18:19
vallenar,-28.5708,-70.7581,54.18,90,3,2.48,CL,2021-04-23 12:18:20
wanaka,-44.7,169.15,48.0,91,91,4.47,NZ,2021-04-23 12:14:33
melville,40.7934,-73.4151,44.01,39,1,12.66,US,2021-04-23 12:18:20
gasa,31.5,34.4667,78.01,50,0,1.99,PS,2021-04-23 12:18:20
salalah,17.0151,54.0924,87.8,62,0,13.8,OM,2021-04-23 12:18:21
jumla,29.2747,82.1838,54.82,55,85,7.11,NP,2021-04-23 12:15:04
broken hill,-31.95,141.4333,59.0,51,76,8.05,AU,2021-04-23 12:18:21
kuybyshevskiy zaton,55.1593,49.1701,59.0,51,0,8.95,RU,2021-04-23 12:18:21
bambanglipuro,-7.95,110.2833,78.13,76,36,5.21,ID,2021-04-23 12:18:22
terrasini,38.146,13.0844,62.01,94,40,16.11,IT,2021-04-23 12:18:22
luan,46.3592,6.9759,66.2,32,20,6.91,CH,2021-04-23 12:18:22
sioux lookout,50.1001,-91.917,41.0,52,75,5.75,CA,2021-04-23 12:18:22
los llanos de aridane,28.6585,-17.9182,71.6,73,75,4.61,ES,2021-04-23 12:18:23
mucuri,-18.0864,-39.5508,77.81,76,29,3.83,BR,2021-04-23 12:18:23
pushkino,56.0172,37.8667,55.4,62,40,17.9,RU,2021-04-23 12:18:23
akhmim,26.5622,31.745,96.8,13,0,9.22,EG,2021-04-23 12:18:23
meadow lake,34.8014,-106.5436,50.0,23,75,8.05,US,2021-04-23 12:15:08
cap malheureux,-19.9842,57.6142,81.0,74,100,10.0,MU,2021-04-23 12:18:24
nelson bay,-32.7167,152.15,55.99,87,16,3.44,AU,2021-04-23 12:18:24
mount gambier,-37.8333,140.7667,53.6,82,90,6.91,AU,2021-04-23 12:18:24
coruripe,-10.1256,-36.1756,83.39,70,27,7.18,BR,2021-04-23 12:14:47
martinsicuro,42.8811,13.9145,63.0,61,59,9.33,IT,2021-04-23 12:18:25
mujiayingzi,42.1167,118.7833,54.14,68,29,12.46,CN,2021-04-23 12:18:25
binga,-17.6203,27.3414,81.46,48,3,6.08,ZW,2021-04-23 12:18:25
linkou,45.3,130.2833,54.68,81,100,2.1,CN,2021-04-23 12:18:25
saint-joseph,-21.3667,55.6167,79.0,83,75,18.41,RE,2021-04-23 12:18:26
tsiroanomandidy,-18.7667,46.0333,82.72,45,10,3.22,MG,2021-04-23 12:18:26
faro,37.0194,-7.9322,66.2,82,75,20.71,PT,2021-04-23 12:15:32
inta,66.0317,60.1659,38.93,96,100,18.43,RU,2021-04-23 12:18:26
bushehr,28.9684,50.8385,86.0,54,0,9.22,IR,2021-04-23 12:18:27
nadym,65.5333,72.5167,34.88,99,100,16.17,RU,2021-04-23 12:18:27
tecpatan,17.1333,-93.3,69.8,88,40,2.3,MX,2021-04-23 12:18:27
sept-iles,50.2001,-66.3821,37.0,100,75,5.75,CA,2021-04-23 12:18:25
sola,-13.8833,167.55,83.57,70,100,17.29,VU,2021-04-23 12:18:28
canaries,28.0,-15.5,75.2,64,75,6.91,ES,2021-04-23 12:18:28
sabang,5.8933,95.3214,83.95,71,86,18.39,ID,2021-04-23 12:18:28
houston,29.7633,-95.3633,70.0,100,90,11.5,US,2021-04-23 12:07:47
codrington,-38.2667,141.9667,54.16,84,100,6.55,AU,2021-04-23 12:18:29
dengzhou,37.8086,120.7508,49.71,92,100,22.1,CN,2021-04-23 12:18:29
pangnirtung,66.1451,-65.7125,19.4,86,90,2.3,CA,2021-04-23 12:18:29
pandan,14.0453,124.1694,79.45,87,95,2.19,PH,2021-04-23 12:18:29
chicama,-7.8447,-79.1469,62.6,94,90,9.22,PE,2021-04-23 12:17:14
fairmont,39.4851,-80.1426,37.0,86,0,5.28,US,2021-04-23 12:18:30
benevento,41.2179,14.7464,66.0,54,88,1.01,IT,2021-04-23 12:18:30
andros town,24.7,-77.7667,77.0,69,20,12.66,BS,2021-04-23 12:15:14
tanout,14.9709,8.8879,104.23,3,6,3.22,NE,2021-04-23 12:18:30
kamenka,51.3223,42.7678,55.99,76,100,9.04,RU,2021-04-23 12:18:31
mogadishu,2.0371,45.3438,87.8,62,40,9.22,SO,2021-04-23 12:18:31
gryfino,53.2524,14.4883,53.01,40,84,4.0,PL,2021-04-23 12:18:31
juybar,36.6412,52.9124,62.6,88,75,13.8,IR,2021-04-23 12:18:32
marystown,47.1666,-55.1483,39.33,73,14,20.6,CA,2021-04-23 12:18:32
vaitape,-16.5167,-151.75,80.02,76,26,13.09,PF,2021-04-23 12:18:32
north branch,45.5113,-92.9802,46.0,84,100,5.01,US,2021-04-23 12:18:32
toora-khem,52.4675,96.11,36.32,66,100,2.48,RU,2021-04-23 12:18:33
lardos,36.0942,28.0157,71.6,46,0,9.22,GR,2021-04-23 12:18:33
itacoatiara,-3.1431,-58.4442,76.71,94,99,4.14,BR,2021-04-23 12:18:33
villa carlos paz,-31.4241,-64.4978,64.99,92,100,1.01,AR,2021-04-23 12:18:33
pacifica,37.6138,-122.4869,51.01,87,90,5.75,US,2021-04-23 12:13:49
abyek,36.0667,50.55,84.2,20,75,13.8,IR,2021-04-23 12:18:34
kununurra,-15.7667,128.7333,73.4,68,40,7.47,AU,2021-04-23 12:18:34
rio gallegos,-51.6226,-69.2181,39.2,93,75,2.3,AR,2021-04-23 12:18:34
mirnyy,62.5353,113.9611,30.88,88,99,11.39,RU,2021-04-23 12:18:35
sanlucar la mayor,37.3871,-6.2011,77.0,44,20,4.61,ES,2021-04-23 12:18:35
aswan,24.0934,32.907,104.61,9,0,11.39,EG,2021-04-23 12:18:35
maniwaki,46.3834,-75.966,39.2,52,13,6.91,CA,2021-04-23 12:18:35
pisco,-13.7,-76.2167,63.0,88,40,1.14,PE,2021-04-23 12:18:36
izhma,65.0083,53.9113,44.42,71,95,9.8,RU,2021-04-23 12:18:36
nampula,-15.1165,39.2666,80.6,65,75,6.91,MZ,2021-04-23 12:18:36
ambilobe,-13.2,49.05,84.56,66,98,10.94,MG,2021-04-23 12:18:37
walvis bay,-22.9575,14.5053,86.0,35,0,10.36,NA,2021-04-23 12:18:37
port hardy,50.6996,-127.4199,46.4,87,40,2.3,CA,2021-04-23 12:18:37
hami,42.8,93.45,56.12,25,100,8.1,CN,2021-04-23 12:18:37
lucea,18.451,-78.1736,80.6,74,20,2.3,JM,2021-04-23 12:18:38
okha,53.5739,142.9478,31.05,86,100,11.18,RU,2021-04-23 12:18:38
penhold,52.1334,-113.8687,21.2,85,20,2.3,CA,2021-04-23 12:15:08
cherskiy,68.75,161.3,13.26,92,100,9.53,RU,2021-04-23 12:18:38
gucheng,35.9115,111.3192,62.11,61,100,1.14,CN,2021-04-23 12:18:38
lagarto,-10.9172,-37.65,82.4,78,40,3.44,BR,2021-04-23 12:18:39
salta,-24.7859,-65.4117,64.99,88,75,1.59,AR,2021-04-23 12:13:51
swan hill,-35.3378,143.5544,53.87,60,33,5.97,AU,2021-04-23 12:18:39
natal,-5.795,-35.2094,86.0,66,75,11.5,BR,2021-04-23 12:18:39
agirish,61.9247,63.0231,45.1,78,100,9.37,RU,2021-04-23 12:18:40
makakilo city,21.3469,-158.0858,75.2,73,1,4.61,US,2021-04-23 12:18:40
